[{"id":"CU_MA010120220800093724","brand":"CU","name":"씨유청학","lat":37.427381493983,"lng":126.665454537464,"address":"인천광역시 연수구 청학동 537-13"},{"id":"7-ELEVEN_MA010120220800082363","brand":"7-ELEVEN","name":"세븐일레븐용현능해길점","lat":37.4584286341923,"lng":126.640337434675,"address":"인천광역시 미추홀구 용현동 571-3"},{"id":"EMART24_MA010120220800490991","brand":"EMART24","name":"이마트24R부평한올점","lat":37.4997582657078,"lng":126.728190237815,"address":"인천광역시 부평구 부평동 400-24"},{"id":"GS25_MA010120220800496597","brand":"GS25","name":"지에스25구월","lat":37.4562428851366,"lng":126.718040072416,"address":"인천광역시 남동구 구월동 1244-11"},{"id":"GS25_MA010120220800304794","brand":"GS25","name":"지에스25신흥","lat":37.4571661097218,"lng":126.634104528903,"address":"인천광역시 중구 신흥동3가 7-326"},{"id":"CU_MA010120220800537925","brand":"CU","name":"씨유연수한양점","lat":37.4081340484143,"lng":126.681116072624,"address":"인천광역시 연수구 동춘동 925"},{"id":"CU_MA010120220800531499","brand":"CU","name":"씨유구월문화서로점","lat":37.4446767028309,"lng":126.697312995339,"address":"인천광역시 남동구 구월동 1407-10"},{"id":"EMART24_MA010120220800147444","brand":"EMART24","name":"이마트24강화길상점","lat":37.6196112967439,"lng":126.506708330929,"address":"인천광역시 강화군 길상면 장흥리 133-1"},{"id":"7-ELEVEN_MA010120220800141200","brand":"7-ELEVEN","name":"세븐일레븐송도힐스레이크점","lat":37.3980972244149,"lng":126.620286224048,"address":"인천광역시 연수구 송도동 397-8"},{"id":"EMART24_MA010120220800093057","brand":"EMART24","name":"이마트24영종하늘","lat":37.4956936093585,"lng":126.565139925718,"address":"인천광역시 중구 중산동 1896-1"},{"id":"GS25_MA010120220800538899","brand":"GS25","name":"지에스25계","lat":37.5387798982997,"lng":126.735821911947,"address":"인천광역시 계양구 계산동 1062"},{"id":"7-ELEVEN_MA010120220800423766","brand":"7-ELEVEN","name":"세븐일레븐계양은영점","lat":37.5325069470634,"lng":126.734927618729,"address":"인천광역시 계양구 작전동 905-12"},{"id":"EMART24_MA010120220800080135","brand":"EMART24","name":"이마트24연수현대점","lat":37.404071955124,"lng":126.675045562185,"address":"인천광역시 연수구 동춘동 928"},{"id":"7-ELEVEN_MA010120220800544413","brand":"7-ELEVEN","name":"세븐서구으뜸점","lat":37.5424401360015,"lng":126.67201316681,"address":"인천광역시 서구 심곡동 337-6"},{"id":"CU_MA010120220800115315","brand":"CU","name":"씨유송도포스코","lat":37.392541640222,"lng":126.647676553015,"address":"인천광역시 연수구 송도동 4-1"},{"id":"EMART24_MA010120220800058205","brand":"EMART24","name":"이마트24인천글로벌캠퍼스점","lat":37.3751664763089,"lng":126.6682720237,"address":"인천광역시 연수구 송도동 187"},{"id":"CU_MA010120220800538022","brand":"CU","name":"씨유현대","lat":37.426210259049,"lng":126.643892249304,"address":"인천광역시 연수구 옥련동 635-1"},{"id":"GS25_MA010120220800062089","brand":"GS25","name":"지에스25불로동부","lat":37.619645335824,"lng":126.691836388257,"address":"인천광역시 서구 불로동 179"},{"id":"7-ELEVEN_MA010120220800347190","brand":"7-ELEVEN","name":"세븐일레븐인천구월","lat":37.4473595366503,"lng":126.703562936819,"address":"인천광역시 남동구 구월동 1451"},{"id":"GS25_MA010120220800099937","brand":"GS25","name":"지에스25가좌","lat":37.4831882744132,"lng":126.684483245127,"address":"인천광역시 서구 가좌동 455-21"},{"id":"GS25_MA010120220800377466","brand":"GS25","name":"지에스25강화대로점","lat":37.7440387793589,"lng":126.505407146236,"address":"인천광역시 강화군 강화읍 갑곳리 453-5"},{"id":"GS25_MA010120220800379007","brand":"GS25","name":"지에스25석남","lat":37.5027608809983,"lng":126.672277295539,"address":"인천광역시 서구 석남동 576-1"},{"id":"EMART24_MA010120220800230660","brand":"EMART24","name":"이마트24영종운서타운점","lat":37.4828834640893,"lng":126.510401309581,"address":"인천광역시 중구 운서동 2913-3"},{"id":"CU_MA010120220800457981","brand":"CU","name":"씨유인천계양","lat":37.5358382215669,"lng":126.73788018514,"address":"인천광역시 계양구 계산동 1080-8"},{"id":"CU_MA010120220800451008","brand":"CU","name":"씨유부평진선미점","lat":37.4920686936071,"lng":126.726454099359,"address":"인천광역시 부평구 부평동 155-11"},{"id":"CU_MA010120220801079030","brand":"CU","name":"씨유서창","lat":37.4214125776826,"lng":126.751429386338,"address":"인천광역시 남동구 서창동 715"},{"id":"CU_MA010120220800731120","brand":"CU","name":"씨유검암","lat":37.5657172606919,"lng":126.683546907186,"address":"인천광역시 서구 검암동 515-6"},{"id":"7-ELEVEN_MA010120220800930239","brand":"7-ELEVEN","name":"세븐인천연수샘말점","lat":37.4138795349224,"lng":126.680007305347,"address":"인천광역시 연수구 연수동 623-7"},{"id":"CU_MA010120220800892428","brand":"CU","name":"씨유도화지젤점","lat":37.4700526575178,"lng":126.665219242719,"address":"인천광역시 미추홀구 도화동 985-4"},{"id":"CU_MA010120220801112421","brand":"CU","name":"CU인천문학점","lat":37.4376181849859,"lng":126.678878002802,"address":"인천광역시 미추홀구 문학동 356-9"},{"id":"7-ELEVEN_MA010120220800675352","brand":"7-ELEVEN","name":"세븐일레븐서구당하풍림점","lat":37.5955921789586,"lng":126.676196126301,"address":"인천광역시 서구 마전동 1055-1"},{"id":"GS25_MA010120220801135362","brand":"GS25","name":"GS25시편의점주안해피점","lat":37.4660315753528,"lng":126.677241803995,"address":"인천광역시 미추홀구 주안동 25-49"},{"id":"CU_MA010120220801108154","brand":"CU","name":"씨유","lat":37.463083079924,"lng":126.683087008961,"address":"인천광역시 미추홀구 주안동 109-3"},{"id":"CU_MA010120220801133787","brand":"CU","name":"씨유하늘다와라점","lat":37.4857472211909,"lng":126.560448759426,"address":"인천광역시 중구 중산동 1874-8"},{"id":"CU_MA010120220801089380","brand":"CU","name":"씨유연안비취점","lat":37.4535700519932,"lng":126.605765574086,"address":"인천광역시 중구 항동7가 27-131"},{"id":"CU_MA010120220801133745","brand":"CU","name":"CU인천항연안여객터미널","lat":37.4540758272858,"lng":126.598100182215,"address":"인천광역시 중구 항동7가 88"},{"id":"GS25_MA010120220801108797","brand":"GS25","name":"GS25인천송현점","lat":37.480589434039,"lng":126.636104561506,"address":"인천광역시 동구 송현동 66-631"},{"id":"CU_MA010120220801093562","brand":"CU","name":"씨유수봉공원점","lat":37.4654427883952,"lng":126.66320513267,"address":"인천광역시 미추홀구 도화동 633-25"},{"id":"EMART24_MA010120220801122470","brand":"EMART24","name":"이마트24남구인하로점","lat":37.4488651043015,"lng":126.669901976181,"address":"인천광역시 미추홀구 주안동 736-7"},{"id":"CU_MA010120220800648856","brand":"CU","name":"씨유SK영종주유소점","lat":37.4994941355942,"lng":126.555007820584,"address":"인천광역시 중구 중산동 1003-1"},{"id":"GS25_MA010120220801091911","brand":"GS25","name":"GS25청라호반점","lat":37.5274899647308,"lng":126.637223106139,"address":"인천광역시 서구 청라동 173-1"},{"id":"GS25_MA010120220801102256","brand":"GS25","name":"GS25인천송월점","lat":37.4796758321315,"lng":126.626295525306,"address":"인천광역시 중구 송월동1가 1-15"},{"id":"CU_MA010120220801113360","brand":"CU","name":"씨유주안서로점","lat":37.4618641153567,"lng":126.678785645865,"address":"인천광역시 미추홀구 주안동 222-16"},{"id":"CU_MA010120220801094256","brand":"CU","name":"씨유인천영흥점","lat":37.2578140617861,"lng":126.494366809536,"address":"인천광역시 옹진군 영흥면 내리 8-32"},{"id":"GS25_MA010120220801114431","brand":"GS25","name":"GS25중구항동점","lat":37.4534190139324,"lng":126.603709425688,"address":"인천광역시 중구 항동7가 58-12"},{"id":"7-ELEVEN_MA010120220800737400","brand":"7-ELEVEN","name":"세븐일레븐도화제일로점","lat":37.4586869608852,"lng":126.673453063381,"address":"인천광역시 미추홀구 도화동 458-11"},{"id":"GS25_MA010120220801096028","brand":"GS25","name":"지에스25부평한양점","lat":37.4961649996722,"lng":126.725048231834,"address":"인천광역시 부평구 부평동 370-11"},{"id":"GS25_MA010120220801078366","brand":"GS25","name":"GS25백령도점","lat":37.9725611750368,"lng":124.717116277807,"address":"인천광역시 옹진군 백령면 진촌리 729-3"},{"id":"CU_MA010120220801127737","brand":"CU","name":"CU용현한양점","lat":37.4506028937999,"lng":126.638702290224,"address":"인천광역시 미추홀구 용현동 627-78"},{"id":"CU_MA010120220801118908","brand":"CU","name":"씨유도화동원점","lat":37.4643694696238,"lng":126.672422335161,"address":"인천광역시 미추홀구 도화동 557-1"},{"id":"GS25_MA010120220800720048","brand":"GS25","name":"지에스25검암공원점","lat":37.5678799497523,"lng":126.677006596297,"address":"인천광역시 서구 검암동 493-1"},{"id":"GS25_MA010120220801135154","brand":"GS25","name":"지에스25동구만석점","lat":37.4854952499212,"lng":126.623123274216,"address":"인천광역시 동구 만석동 9-285"},{"id":"CU_MA010120220801126905","brand":"CU","name":"씨유대청도","lat":37.8325957337931,"lng":124.70347092756,"address":"인천광역시 옹진군 대청면 대청리 788"},{"id":"EMART24_MA010120220801089284","brand":"EMART24","name":"이마트24송도스마트밸리점","lat":37.3666451386433,"lng":126.647278391163,"address":"인천광역시 연수구 송도동 214"},{"id":"CU_MA010120220801107775","brand":"CU","name":"씨유인하대학교점","lat":37.4513059657876,"lng":126.656939644325,"address":"인천광역시 미추홀구 용현동 191-1"},{"id":"CU_MA010120220800891932","brand":"CU","name":"씨유동양","lat":37.5601814589275,"lng":126.758201325094,"address":"인천광역시 계양구 동양동 636-1"},{"id":"CU_MA010120220801118376","brand":"CU","name":"씨유신포","lat":37.4703120334989,"lng":126.625550836961,"address":"인천광역시 중구 신생동 7-19"},{"id":"7-ELEVEN_MA010120220801083167","brand":"7-ELEVEN","name":"세븐일레븐숭의","lat":37.4626958702404,"lng":126.651179452207,"address":"인천광역시 미추홀구 숭의동 203-1"},{"id":"CU_MA010120220800844647","brand":"CU","name":"씨유청천향기점","lat":37.5177195041447,"lng":126.703737294666,"address":"인천광역시 부평구 청천동 15-9"},{"id":"7-ELEVEN_MA010120220800685999","brand":"7-ELEVEN","name":"세븐일레븐계양벌말로점","lat":37.5789185086047,"lng":126.779356043922,"address":"인천광역시 계양구 상야동 16-5"},{"id":"7-ELEVEN_MA010120220801081174","brand":"7-ELEVEN","name":"세븐일레븐인천신현염곡로점","lat":37.5148520601279,"lng":126.668955506414,"address":"인천광역시 서구 신현동 290"},{"id":"EMART24_MA010120220801052812","brand":"EMART24","name":"이마트24영종리치아노점","lat":37.4935637382848,"lng":126.498333937454,"address":"인천광역시 중구 운서동 3050-2"},{"id":"CU_MA010120220801104612","brand":"CU","name":"씨유신동아","lat":37.4410484168472,"lng":126.677914141741,"address":"인천광역시 미추홀구 학익동 48-131"},{"id":"GS25_MA010120220800801827","brand":"GS25","name":"지에스25서송","lat":37.5431521131685,"lng":126.713650847498,"address":"인천광역시 계양구 계산동 산 52-27"},{"id":"GS25_MA010120220801133513","brand":"GS25","name":"GS25월미분수대점","lat":37.4733081390444,"lng":126.596878042522,"address":"인천광역시 중구 북성동1가 98-275"},{"id":"CU_MA010120220801124346","brand":"CU","name":"씨유인천","lat":37.4510906388703,"lng":126.673158343385,"address":"인천광역시 미추홀구 주안동 1421"},{"id":"EMART24_MA010120220801106552","brand":"EMART24","name":"이마트24용현우성점","lat":37.4502780258019,"lng":126.641495301949,"address":"인천광역시 미추홀구 용현동 615-7"},{"id":"GS25_MA010120220801094883","brand":"GS25","name":"GS25구월","lat":37.4469064489449,"lng":126.698976549022,"address":"인천광역시 남동구 구월동 1371-19"},{"id":"GS25_MA010120220801134752","brand":"GS25","name":"지에스25주안용일점","lat":37.4506151449429,"lng":126.667430564892,"address":"인천광역시 미추홀구 주안동 801-25"},{"id":"GS25_MA010120220801100347","brand":"GS25","name":"GS25주안6동점","lat":37.4639621958021,"lng":126.688407240936,"address":"인천광역시 미추홀구 주안동 966-1"},{"id":"7-ELEVEN_MA010120220801118826","brand":"7-ELEVEN","name":"세븐3861호점","lat":37.4316983294506,"lng":126.623822504288,"address":"인천광역시 중구 신흥동3가 70"},{"id":"CU_MA010120220800696286","brand":"CU","name":"씨유주안하늘점","lat":37.467843645427,"lng":126.684299057507,"address":"인천광역시 미추홀구 주안동 18-130"},{"id":"GS25_MA010120220801114017","brand":"GS25","name":"GS25항동라이프","lat":37.4529349394105,"lng":126.604446596733,"address":"인천광역시 중구 항동7가 58-84"},{"id":"GS25_MA010120220801101109","brand":"GS25","name":"GS25용현","lat":37.449035465766,"lng":126.635873220955,"address":"인천광역시 미추홀구 용현동 627-79"},{"id":"7-ELEVEN_MA010120220801096675","brand":"7-ELEVEN","name":"세븐일레븐인천중구","lat":37.4672836361808,"lng":126.633851752382,"address":"인천광역시 중구 신흥동2가 16-24"},{"id":"GS25_MA010120220801108078","brand":"GS25","name":"GS25","lat":37.4502618638482,"lng":126.636206318694,"address":"인천광역시 미추홀구 용현동 627-376"},{"id":"CU_MA010120220801128564","brand":"CU","name":"씨유덕적도점","lat":37.2238288687794,"lng":126.116686331871,"address":"인천광역시 옹진군 덕적면 서포리 540-30"},{"id":"GS25_MA010120220801091337","brand":"GS25","name":"GS25을왕리점","lat":37.4457240235188,"lng":126.376075465176,"address":"인천광역시 중구 을왕동 726"},{"id":"7-ELEVEN_MA010120220801103928","brand":"7-ELEVEN","name":"세븐일레븐인천재능대점","lat":37.4771170718225,"lng":126.64985752764,"address":"인천광역시 동구 송림동 29-11"},{"id":"CU_MA010120220801135011","brand":"CU","name":"씨유연평도점","lat":37.6620761371388,"lng":125.703192139878,"address":"인천광역시 옹진군 연평면 연평리 324"},{"id":"CU_MA010120220800810846","brand":"CU","name":"씨유영흥화력점","lat":37.242902981197,"lng":126.452067551771,"address":"인천광역시 옹진군 영흥면 외리 949-8"},{"id":"CU_MA010120220801096496","brand":"CU","name":"씨유학익","lat":37.4401665370026,"lng":126.668539001751,"address":"인천광역시 미추홀구 학익동 659-4"},{"id":"EMART24_MA010120220801078045","brand":"EMART24","name":"이마트24인천송림","lat":37.4803951860512,"lng":126.652386071146,"address":"인천광역시 동구 송림동 2-137"},{"id":"EMART24_MA010120220800909892","brand":"EMART24","name":"이마트24영종덕교","lat":37.4269757023873,"lng":126.42063146026,"address":"인천광역시 중구 덕교동 132-3"},{"id":"7-ELEVEN_MA010120220801124236","brand":"7-ELEVEN","name":"세븐일레븐영종","lat":37.4971913185035,"lng":126.551233155228,"address":"인천광역시 중구 중산동 1335-8"},{"id":"EMART24_MA010120220801093293","brand":"EMART24","name":"이마트24계산현대점","lat":37.5372775185229,"lng":126.728880074045,"address":"인천광역시 계양구 계산동 303-2"},{"id":"GS25_MA010120220801132281","brand":"GS25","name":"지에스25도화진주점","lat":37.4691905625068,"lng":126.669439579789,"address":"인천광역시 미추홀구 도화동 107-1"},{"id":"GS25_MA010120220800922479","brand":"GS25","name":"지에스25주안보보점","lat":37.4586802848316,"lng":126.687649271967,"address":"인천광역시 미추홀구 주안동 1004-3"},{"id":"GS25_MA010120220801129148","brand":"GS25","name":"GS25선재대교점","lat":37.2335115088633,"lng":126.533485833678,"address":"인천광역시 옹진군 영흥면 선재리 142"},{"id":"CU_MA010120220801107246","brand":"CU","name":"씨유선재도점","lat":37.2415230612116,"lng":126.52926651295,"address":"인천광역시 옹진군 영흥면 선재리 437"},{"id":"EMART24_MA010120220801111107","brand":"EMART24","name":"이마트24","lat":37.4747877400407,"lng":126.630547972635,"address":"인천광역시 중구 인현동 20-11"},{"id":"7-ELEVEN_MA010120220801088422","brand":"7-ELEVEN","name":"세븐일레븐인천중구홍예문점","lat":37.4727237485777,"lng":126.624611813326,"address":"인천광역시 중구 송학동3가 7-12"},{"id":"EMART24_MA010120220800696699","brand":"EMART24","name":"이마트24남촌농산물","lat":37.4223320328585,"lng":126.719409970626,"address":"인천광역시 남동구 남촌동 652"},{"id":"7-ELEVEN_MA010120220801094678","brand":"7-ELEVEN","name":"세븐1626호점","lat":37.4382505918013,"lng":126.686220052303,"address":"인천광역시 미추홀구 문학동 380-1"},{"id":"7-ELEVEN_MA010120220801103601","brand":"7-ELEVEN","name":"세븐일레븐인천","lat":37.4798012261431,"lng":126.665107920539,"address":"인천광역시 동구 송림동 297-37"},{"id":"CU_MA010120220801114880","brand":"CU","name":"씨유","lat":37.4552048773475,"lng":126.635063464468,"address":"인천광역시 미추홀구 용현동 628-10"},{"id":"CU_MA010120220801090639","brand":"CU","name":"씨유무의도점","lat":37.4048270608757,"lng":126.412941084622,"address":"인천광역시 중구 무의동 344-8"},{"id":"GS25_MA010120220801082477","brand":"GS25","name":"GS25주안으뜸점","lat":37.4636660263732,"lng":126.682078542171,"address":"인천광역시 미추홀구 주안동 133-3"},{"id":"GS25_MA010120220801133650","brand":"GS25","name":"GS25학익위브","lat":37.441479231814,"lng":126.654973094826,"address":"인천광역시 미추홀구 학익동 739"},{"id":"GS25_MA010120220801088394","brand":"GS25","name":"지에스25청능","lat":37.4173916437623,"lng":126.669509228816,"address":"인천광역시 연수구 청학동 463-6"},{"id":"GS25_MA010120220801132809","brand":"GS25","name":"GS25인천경동점","lat":37.4716922459832,"lng":126.631818023492,"address":"인천광역시 중구 경동 187-3"},{"id":"GS25_MA010120220800856767","brand":"GS25","name":"GS25인천외고점","lat":37.5046029443749,"lng":126.693927149049,"address":"인천광역시 부평구 산곡동 180-147"},{"id":"CU_MA010120220801099444","brand":"CU","name":"씨유주안웰컴점","lat":37.4599316270492,"lng":126.687248466315,"address":"인천광역시 미추홀구 주안동 62-2"},{"id":"EMART24_MA010120220801102985","brand":"EMART24","name":"이마트24문학야구장3루점,치킨","lat":37.4350820532844,"lng":126.690786835276,"address":"인천광역시 미추홀구 문학동 482"},{"id":"EMART24_MA010120220801091406","brand":"EMART24","name":"이마트24을왕해수욕장점","lat":37.4466467339793,"lng":126.373366923288,"address":"인천광역시 중구 을왕동 755-17"},{"id":"7-ELEVEN_MA010120220801103128","brand":"7-ELEVEN","name":"세븐일레븐","lat":37.4517823828614,"lng":126.689101965729,"address":"인천광역시 미추홀구 주안동 1535-16"},{"id":"GS25_MA010120220801097058","brand":"GS25","name":"GS25인천관교점","lat":37.4430647447231,"lng":126.694144091772,"address":"인천광역시 미추홀구 관교동 492-5"},{"id":"GS25_MA010120220800998582","brand":"GS25","name":"지에스25영종더","lat":37.4899894674697,"lng":126.498968439021,"address":"인천광역시 중구 운서동 3098-5"},{"id":"GS25_MA010120220801126232","brand":"GS25","name":"지에스25주안뉴미래점","lat":37.4597668304603,"lng":126.682886250403,"address":"인천광역시 미추홀구 주안동 81-2"},{"id":"CU_MA010120220801080572","brand":"CU","name":"씨유만수대로점","lat":37.4546110906165,"lng":126.73314579114,"address":"인천광역시 남동구 만수동 956-2"},{"id":"CU_MA010120220801125439","brand":"CU","name":"씨유서구성민","lat":37.5094919348498,"lng":126.66925062815,"address":"인천광역시 서구 석남동 523-18"},{"id":"GS25_MA010120220800756669","brand":"GS25","name":"지에스25운서타운점","lat":37.4959822302301,"lng":126.499233727517,"address":"인천광역시 중구 운서동 3038-10"},{"id":"7-ELEVEN_MA010120220801105327","brand":"7-ELEVEN","name":"세븐일레븐월미문화로점","lat":37.4736420829382,"lng":126.597045822688,"address":"인천광역시 중구 북성동1가 98-432"},{"id":"CU_MA010120220801123160","brand":"CU","name":"씨유관교동아","lat":37.4450391367807,"lng":126.694599381017,"address":"인천광역시 미추홀구 관교동 13-3"},{"id":"GS25_MA010120220801125101","brand":"GS25","name":"GS25용현용남점","lat":37.4504910888043,"lng":126.664978698555,"address":"인천광역시 미추홀구 용현동 15"},{"id":"EMART24_MA010120220801107396","brand":"EMART24","name":"이마트24용현정석점","lat":37.4508642524332,"lng":126.659981767236,"address":"인천광역시 미추홀구 용현동 187-42"},{"id":"GS25_MA010120220801123396","brand":"GS25","name":"지에스25주안인하로점","lat":37.4478342092616,"lng":126.685038622259,"address":"인천광역시 미추홀구 주안동 1498-1"},{"id":"CU_MA010120220801104874","brand":"CU","name":"씨유서구제스트점","lat":37.544088437084,"lng":126.675083780979,"address":"인천광역시 서구 심곡동 246-7"},{"id":"7-ELEVEN_MA010120220801121110","brand":"7-ELEVEN","name":"세븐일레븐인천중구덕교점","lat":37.4258903402627,"lng":126.421622719901,"address":"인천광역시 중구 덕교동 128-66"},{"id":"7-ELEVEN_MA010120220800851523","brand":"7-ELEVEN","name":"세븐일레븐영종오션솔레뷰","lat":37.4945107712437,"lng":126.579372313444,"address":"인천광역시 중구 중산동 1947-1"},{"id":"7-ELEVEN_MA010120220801127108","brand":"7-ELEVEN","name":"세븐일레븐주안우수점","lat":37.457172583563,"lng":126.679789027197,"address":"인천광역시 미추홀구 주안동 473-8"},{"id":"7-ELEVEN_MA010120220801246117","brand":"7-ELEVEN","name":"세븐부평힘찬점주","lat":37.4924467869237,"lng":126.730229522309,"address":"인천광역시 부평구 부평동 512-4"},{"id":"GS25_MA010120220801615109","brand":"GS25","name":"지에스25용현토금점","lat":37.4532728568196,"lng":126.636734225383,"address":"인천광역시 미추홀구 용현동 622-59"},{"id":"GS25_MA010120220801220543","brand":"GS25","name":"GS25계양장제로점","lat":37.5559839732429,"lng":126.745878933862,"address":"인천광역시 계양구 박촌동 145-41"},{"id":"7-ELEVEN_MA010120220801192932","brand":"7-ELEVEN","name":"세븐일레븐인천아이빌점","lat":37.535189306938,"lng":126.737791942458,"address":"인천광역시 계양구 계산동 1080-5"},{"id":"7-ELEVEN_MA010120220801186314","brand":"7-ELEVEN","name":"세븐일레븐인천산곡","lat":37.4994949472941,"lng":126.715841926819,"address":"인천광역시 부평구 산곡동 294-134"},{"id":"7-ELEVEN_MA010120220801157811","brand":"7-ELEVEN","name":"세븐도화마이다스점주","lat":37.4592288079336,"lng":126.673902818088,"address":"인천광역시 미추홀구 도화동 434-2"},{"id":"7-ELEVEN_MA010120220801246012","brand":"7-ELEVEN","name":"세븐인천동암점주","lat":37.4721113225443,"lng":126.700412938994,"address":"인천광역시 부평구 십정동 407-1"},{"id":"7-ELEVEN_MA010120220801157929","brand":"7-ELEVEN","name":"세븐주안다운타운점주","lat":37.4631162656466,"lng":126.682024353144,"address":"인천광역시 미추홀구 주안동 134-5"},{"id":"EMART24_MA010120220801238657","brand":"EMART24","name":"이마트24경인","lat":37.5386523872358,"lng":126.719596990508,"address":"인천광역시 계양구 계산동 983-30"},{"id":"GS25_MA010120220801205622","brand":"GS25","name":"지에스25부평","lat":37.4918198349561,"lng":126.727936314991,"address":"인천광역시 부평구 부평동 585-2"},{"id":"GS25_MA010120220801183802","brand":"GS25","name":"지에스25계산","lat":37.5345562720927,"lng":126.736741943142,"address":"인천광역시 계양구 계산동 1082-7"},{"id":"7-ELEVEN_MA010120220801157760","brand":"7-ELEVEN","name":"세븐주안현대점주","lat":37.4572112772138,"lng":126.694402957879,"address":"인천광역시 미추홀구 주안동 1584-5"},{"id":"7-ELEVEN_MA010120220801191534","brand":"7-ELEVEN","name":"세븐일레븐","lat":37.4739466126298,"lng":126.695804480912,"address":"인천광역시 부평구 십정동 322-20"},{"id":"GS25_MA010120220801224098","brand":"GS25","name":"GS25한마음","lat":37.5283226597538,"lng":126.72159284594,"address":"인천광역시 계양구 작전동 865-21"},{"id":"7-ELEVEN_MA010120220801185181","brand":"7-ELEVEN","name":"세븐일레븐부평자애점","lat":37.4868305389289,"lng":126.725025911427,"address":"인천광역시 부평구 부평동 653"},{"id":"GS25_MA010120220801157733","brand":"GS25","name":"지에스리테일GS25N연평점주","lat":37.662011797716,"lng":125.700620725071,"address":"인천광역시 옹진군 연평면 연평리 477-21"},{"id":"GS25_MA010120220801204881","brand":"GS25","name":"GS25부평","lat":37.4947938276983,"lng":126.728230846982,"address":"인천광역시 부평구 부평동 149-15"},{"id":"CU_MA010120220801229093","brand":"CU","name":"씨유부평다온점","lat":37.495940910192,"lng":126.733417207967,"address":"인천광역시 부평구 부평동 173-1"},{"id":"7-ELEVEN_MA010120220801234586","brand":"7-ELEVEN","name":"세븐일레븐신포","lat":37.4711029698284,"lng":126.624936446108,"address":"인천광역시 중구 신포동 26-28"},{"id":"CU_MA010120220801219060","brand":"CU","name":"씨유작전","lat":37.5265753258188,"lng":126.729608900598,"address":"인천광역시 계양구 작전동 388-1"},{"id":"7-ELEVEN_MA010120220801448457","brand":"7-ELEVEN","name":"세븐영종타운점","lat":37.4948190296567,"lng":126.534251296382,"address":"인천광역시 중구 운남동 1502"},{"id":"CU_MA010120220801169735","brand":"CU","name":"씨유인천병방점","lat":37.5485508118514,"lng":126.741751102075,"address":"인천광역시 계양구 병방동 119-11"},{"id":"GS25_MA010120220801165470","brand":"GS25","name":"지에스25부평창조","lat":37.4990861718392,"lng":126.725874371874,"address":"인천광역시 부평구 부평동 416-38"},{"id":"GS25_MA010120220801180142","brand":"GS25","name":"지에스25부개역점","lat":37.4882151086863,"lng":126.739618370945,"address":"인천광역시 부평구 부개동 289-9"},{"id":"GS25_MA010120220801178050","brand":"GS25","name":"GS25계산동경점","lat":37.5357806861613,"lng":126.736319008684,"address":"인천광역시 계양구 계산동 1076-7"},{"id":"EMART24_MA010120220801757459","brand":"EMART24","name":"이마트24서구원당점","lat":37.6014619144874,"lng":126.698219020092,"address":"인천광역시 서구 원당동 796-8"},{"id":"7-ELEVEN_MA010120220801246459","brand":"7-ELEVEN","name":"세븐계양은영점주","lat":37.5325069470634,"lng":126.734927618729,"address":"인천광역시 계양구 작전동 905-12"},{"id":"CU_MA010120220801317399","brand":"CU","name":"씨유구월궐리단길","lat":37.4434617022424,"lng":126.70497956567,"address":"인천광역시 남동구 구월동 1175-1"},{"id":"7-ELEVEN_MA010120220801157915","brand":"7-ELEVEN","name":"세븐인천주안대로점주","lat":37.4637894247881,"lng":126.681060708266,"address":"인천광역시 미추홀구 주안동 140-1"},{"id":"CU_MA010120220801231227","brand":"CU","name":"씨유청천마장로점","lat":37.51452228787,"lng":126.704270245019,"address":"인천광역시 부평구 청천동 179"},{"id":"GS25_MA010120220801524725","brand":"GS25","name":"지에스25부평","lat":37.4909813812497,"lng":126.720001443415,"address":"인천광역시 부평구 부평동 534-61"},{"id":"GS25_MA010120220801186891","brand":"GS25","name":"GS25작전역점","lat":37.529370709975,"lng":126.722822106893,"address":"인천광역시 계양구 작전동 866-2"},{"id":"7-ELEVEN_MA010120220801157753","brand":"7-ELEVEN","name":"세븐SK내트럭인천점주","lat":37.4316983294506,"lng":126.623822504288,"address":"인천광역시 중구 신흥동3가 70"},{"id":"CU_MA010120220801724870","brand":"CU","name":"씨유주안에듀포레점","lat":37.4539720562123,"lng":126.69263042379,"address":"인천광역시 미추홀구 주안동 1556-59"},{"id":"CU_MA010120220801238963","brand":"CU","name":"씨유송도","lat":37.3962655938566,"lng":126.642588430352,"address":"인천광역시 연수구 송도동 19-6"},{"id":"GS25_MA010120220801216962","brand":"GS25","name":"GS25갈산","lat":37.5183787696498,"lng":126.726799241934,"address":"인천광역시 부평구 갈산동 169-16"},{"id":"7-ELEVEN_MA010120220801246298","brand":"7-ELEVEN","name":"세븐인천부평쌍용점주","lat":37.505561284109,"lng":126.720704753923,"address":"인천광역시 부평구 부평동 54-3"},{"id":"CU_MA010120220801144200","brand":"CU","name":"씨유부평북부역점","lat":37.4914336459937,"lng":126.7207460591,"address":"인천광역시 부평구 부평동 341-25"},{"id":"7-ELEVEN_MA010120220801246293","brand":"7-ELEVEN","name":"세븐인천저온센터","lat":37.5039941798762,"lng":126.623550541303,"address":"인천광역시 서구 원창동 393-47"},{"id":"7-ELEVEN_MA010120220801245962","brand":"7-ELEVEN","name":"세븐인천교대점주","lat":37.5395505174996,"lng":126.722196053733,"address":"인천광역시 계양구 계산동 973-13"},{"id":"7-ELEVEN_MA010120220801181759","brand":"7-ELEVEN","name":"세븐일레븐인천부평대우점","lat":37.5132642331401,"lng":126.705609898075,"address":"인천광역시 부평구 청천동 180-4"},{"id":"EMART24_MA010120220801184304","brand":"EMART24","name":"이마트24R부평동아점","lat":37.493769761483,"lng":126.721811620179,"address":"인천광역시 부평구 부평동 546-67"},{"id":"7-ELEVEN_MA010120220801158174","brand":"7-ELEVEN","name":"세븐주안본점주","lat":37.4622495418347,"lng":126.681372436259,"address":"인천광역시 미추홀구 주안동 150-4"},{"id":"GS25_MA010120220801230402","brand":"GS25","name":"지에스25동양","lat":37.5633167138941,"lng":126.758100644285,"address":"인천광역시 계양구 동양동 613"},{"id":"7-ELEVEN_MA010120220801190482","brand":"7-ELEVEN","name":"세븐일레븐인천부평노체점","lat":37.498327068302,"lng":126.721059651077,"address":"인천광역시 부평구 부평동 529-40"},{"id":"GS25_MA010120220801189216","brand":"GS25","name":"지에스25효성성지점","lat":37.5266141084166,"lng":126.719200851706,"address":"인천광역시 계양구 효성동 200-4"},{"id":"CU_MA010120220801230990","brand":"CU","name":"씨유부평래미안점","lat":37.502754657128,"lng":126.72261517861,"address":"인천광역시 부평구 부평동 950"},{"id":"GS25_MA010120220801157732","brand":"GS25","name":"지에스리테일GS25N인방사점주","lat":37.4610549613802,"lng":126.597022953641,"address":"인천광역시 중구 북성동1가 104-12"},{"id":"7-ELEVEN_MA010120220801157397","brand":"7-ELEVEN","name":"세븐동인천점","lat":37.4743397866069,"lng":126.631364140053,"address":"인천광역시 중구 인현동 26-1"},{"id":"7-ELEVEN_MA010120220801245924","brand":"7-ELEVEN","name":"세븐부평2호점주","lat":37.4941638257417,"lng":126.720803742366,"address":"인천광역시 부평구 부평동 542-28"},{"id":"EMART24_MA010120220801194683","brand":"EMART24","name":"이마트24R영종운남점","lat":37.4933192948372,"lng":126.53550447385,"address":"인천광역시 중구 운남동 433-3"},{"id":"7-ELEVEN_MA010120220801219758","brand":"7-ELEVEN","name":"세븐일레븐계양한라점","lat":37.5425644818681,"lng":126.728057539757,"address":"인천광역시 계양구 계산동 947"},{"id":"7-ELEVEN_MA010120220801220510","brand":"7-ELEVEN","name":"세븐일레븐","lat":37.5058046194064,"lng":126.732409494561,"address":"인천광역시 부평구 부개동 479-5"},{"id":"7-ELEVEN_MA010120220801157948","brand":"7-ELEVEN","name":"세븐인천주안북부역점주","lat":37.4665785414115,"lng":126.679579355539,"address":"인천광역시 미추홀구 주안동 24-12"},{"id":"CU_MA010120220801183050","brand":"CU","name":"씨유쉐이프웍스점","lat":37.5453364841036,"lng":126.730650098709,"address":"인천광역시 계양구 계산동 911"},{"id":"GS25_MA010120220801239375","brand":"GS25","name":"지에스25임학서로점","lat":37.5454760560267,"lng":126.732595913457,"address":"인천광역시 계양구 임학동 47-22"},{"id":"7-ELEVEN_MA010120220801205612","brand":"7-ELEVEN","name":"세븐일레븐작전","lat":37.5308752024146,"lng":126.730532406946,"address":"인천광역시 계양구 작전동 98-3"},{"id":"7-ELEVEN_MA010120220801209772","brand":"7-ELEVEN","name":"세븐일레븐주안더월드점","lat":37.4596246105647,"lng":126.690414538828,"address":"인천광역시 미추홀구 주안동 939-14"},{"id":"GS25_MA010120220801199225","brand":"GS25","name":"GS25백운역점","lat":37.4849168640778,"lng":126.708513906626,"address":"인천광역시 부평구 십정동 174-118"},{"id":"GS25_MA010120220801218826","brand":"GS25","name":"지에스25삼산평천로점","lat":37.5160533798683,"lng":126.746647832548,"address":"인천광역시 부평구 삼산동 449-14"},{"id":"7-ELEVEN_MA010120220801183305","brand":"7-ELEVEN","name":"세븐일레븐인천","lat":37.5322511831596,"lng":126.710422842996,"address":"인천광역시 계양구 효성동 63-2"},{"id":"CU_MA010120220801567191","brand":"CU","name":"씨유부평갈산2동점","lat":37.5083506570234,"lng":126.722945088856,"address":"인천광역시 부평구 갈산동 377"},{"id":"7-ELEVEN_MA010120220801246590","brand":"7-ELEVEN","name":"세븐인천부평시장역점주","lat":37.4988949892138,"lng":126.721181934917,"address":"인천광역시 부평구 부평동 529-35"},{"id":"GS25_MA010120220801223192","brand":"GS25","name":"지에스25작전까치점","lat":37.52682455007,"lng":126.736226093366,"address":"인천광역시 계양구 작전동 690-1"},{"id":"7-ELEVEN_MA010120220801171499","brand":"7-ELEVEN","name":"세븐일레븐부평부일여중점","lat":37.4849600622736,"lng":126.718904557282,"address":"인천광역시 부평구 부평동 756-87"},{"id":"7-ELEVEN_MA010120220801205007","brand":"7-ELEVEN","name":"세븐일레븐계산택지점","lat":37.5326534879736,"lng":126.735990602875,"address":"인천광역시 계양구 작전동 905-6"},{"id":"CU_MA010120220801206865","brand":"CU","name":"씨유계양","lat":37.5789563240847,"lng":126.736302675217,"address":"인천광역시 계양구 장기동 144-7"},{"id":"GS25_MA010120220801170088","brand":"GS25","name":"GS25연수","lat":37.4084205710656,"lng":126.67059908831,"address":"인천광역시 연수구 동춘동 937-1"},{"id":"7-ELEVEN_MA010120220801157461","brand":"7-ELEVEN","name":"세븐인천학익２호점주","lat":37.4397874119686,"lng":126.665094221421,"address":"인천광역시 미추홀구 학익동 684-1"},{"id":"7-ELEVEN_MA010120220801227614","brand":"7-ELEVEN","name":"세븐일레븐부평5동점","lat":37.4940299801833,"lng":126.729104333024,"address":"인천광역시 부평구 부평동 525-1"},{"id":"CU_MA010120220801231540","brand":"CU","name":"씨유부평","lat":37.4951969471691,"lng":126.723344242106,"address":"인천광역시 부평구 부평동 206-14"},{"id":"GS25_MA010120220801193390","brand":"GS25","name":"GS25삼산블루밍","lat":37.5186377472845,"lng":126.737702817083,"address":"인천광역시 부평구 삼산동 202"},{"id":"CU_MA010120220801192641","brand":"CU","name":"씨유계양","lat":37.5348197748816,"lng":126.737736665332,"address":"인천광역시 계양구 계산동 1083-8"},{"id":"GS25_MA010120220801229968","brand":"GS25","name":"GS25부평2동점","lat":37.4867345966151,"lng":126.718716997653,"address":"인천광역시 부평구 부평동 760-117"},{"id":"CU_MA010120220801207313","brand":"CU","name":"씨유부평도서관점","lat":37.5057830879422,"lng":126.72306767573,"address":"인천광역시 부평구 부평동 882-4"},{"id":"GS25_MA010120220801201172","brand":"GS25","name":"GS25부평","lat":37.5078732805822,"lng":126.734788545344,"address":"인천광역시 부평구 삼산동 460-1"},{"id":"CU_MA010120220801202879","brand":"CU","name":"씨유부개3동점","lat":37.5047870659958,"lng":126.736676865415,"address":"인천광역시 부평구 부개동 12-18"},{"id":"7-ELEVEN_MA010120220801204716","brand":"7-ELEVEN","name":"세븐일레븐부평삼산","lat":37.5071369477192,"lng":126.73589953103,"address":"인천광역시 부평구 삼산동 461-4"},{"id":"CU_MA010120220801210153","brand":"CU","name":"씨유인천","lat":37.4621077137453,"lng":126.733243486925,"address":"인천광역시 남동구 만수동 1115-1"},{"id":"7-ELEVEN_MA010120220801246353","brand":"7-ELEVEN","name":"세븐계양한라점주","lat":37.5425644818681,"lng":126.728057539757,"address":"인천광역시 계양구 계산동 947"},{"id":"EMART24_MA010120220801187296","brand":"EMART24","name":"이마트24신현염곡로점","lat":37.5162038601133,"lng":126.669062648654,"address":"인천광역시 서구 신현동 289"},{"id":"CU_MA010120220801220591","brand":"CU","name":"씨유부평골목길점","lat":37.492743503545,"lng":126.722188585027,"address":"인천광역시 부평구 부평동 546-26"},{"id":"CU_MA010120220801143779","brand":"CU","name":"씨유서창비젼점","lat":37.4224652363649,"lng":126.750702881869,"address":"인천광역시 남동구 서창동 708-3"},{"id":"CU_MA010120220801184221","brand":"CU","name":"씨유부평공원점","lat":37.5047521197792,"lng":126.725288174302,"address":"인천광역시 부평구 부평동 889-6"},{"id":"CU_MA010120220801219618","brand":"CU","name":"씨유임학","lat":37.5476760267082,"lng":126.737295564652,"address":"인천광역시 계양구 임학동 4-12"},{"id":"GS25_MA010120220801205659","brand":"GS25","name":"GS25서부공단점","lat":37.5467049648896,"lng":126.645051176593,"address":"인천광역시 서구 경서동 350-96"},{"id":"7-ELEVEN_MA010120220801190543","brand":"7-ELEVEN","name":"세븐일레븐계산새길로점","lat":37.5373910106079,"lng":126.723426039036,"address":"인천광역시 계양구 계산동 988-21"},{"id":"CU_MA010120220801187494","brand":"CU","name":"씨유부평메인점","lat":37.4927487987604,"lng":126.728340027505,"address":"인천광역시 부평구 부평동 571-2"},{"id":"GS25_MA010120220801246166","brand":"GS25","name":"지에스리테일GS25부평주","lat":37.4925719676881,"lng":126.725898181322,"address":"인천광역시 부평구 부평동 154-16"},{"id":"GS25_MA010120220801217651","brand":"GS25","name":"GS25계양","lat":37.5381641831366,"lng":126.738505666242,"address":"인천광역시 계양구 용종동 211-4"},{"id":"GS25_MA010120220801203515","brand":"GS25","name":"GS25구월성의점","lat":37.451483156265,"lng":126.720826835917,"address":"인천광역시 남동구 구월동 1276-31"},{"id":"GS25_MA010120220801179213","brand":"GS25","name":"GS25문학","lat":37.4396650835605,"lng":126.679468147361,"address":"인천광역시 미추홀구 문학동 337-1"},{"id":"CU_MA010120220801219071","brand":"CU","name":"씨유작전","lat":37.5349546839954,"lng":126.72573182023,"address":"인천광역시 계양구 작전동 856-34"},{"id":"7-ELEVEN_MA010120220801246582","brand":"7-ELEVEN","name":"코리아세븐계양","lat":37.5341430113971,"lng":126.71031370158,"address":"인천광역시 계양구 효성동 25-12"},{"id":"7-ELEVEN_MA010120220801146966","brand":"7-ELEVEN","name":"세븐일레븐을왕한양점,HYCOFFEE","lat":37.448104191618,"lng":126.372959232555,"address":"인천광역시 중구 을왕동 760-5"},{"id":"GS25_MA010120220801225922","brand":"GS25","name":"지에스25가좌제일","lat":37.4952705445111,"lng":126.684409805719,"address":"인천광역시 서구 가좌동 7"},{"id":"7-ELEVEN_MA010120220801194971","brand":"7-ELEVEN","name":"세븐부평파라움점","lat":37.4915728309563,"lng":126.726320215824,"address":"인천광역시 부평구 부평동 159-1"},{"id":"7-ELEVEN_MA010120220801245923","brand":"7-ELEVEN","name":"세븐부평점주","lat":37.4932657352784,"lng":126.725895645964,"address":"인천광역시 부평구 부평동 153-48"},{"id":"CU_MA010120220801185542","brand":"CU","name":"씨유계양맘모스점","lat":37.5337157213001,"lng":126.735568239695,"address":"인천광역시 계양구 작전동 907-2"},{"id":"7-ELEVEN_MA010120220801168676","brand":"7-ELEVEN","name":"세븐일레븐인천부평초교점","lat":37.541557624642,"lng":126.725141874508,"address":"인천광역시 계양구 계산동 954"},{"id":"EMART24_MA010120220801147538","brand":"EMART24","name":"이마트24인천화수점","lat":37.4827065761953,"lng":126.633120738338,"address":"인천광역시 동구 화수동 275-5"},{"id":"7-ELEVEN_MA010120220801202172","brand":"7-ELEVEN","name":"세븐일레븐구월","lat":37.4543886160889,"lng":126.72261306394,"address":"인천광역시 남동구 구월동 1260"},{"id":"7-ELEVEN_MA010120220801157396","brand":"7-ELEVEN","name":"세븐인천남구청점","lat":37.4606936472593,"lng":126.679095833545,"address":"인천광역시 미추홀구 주안동 206-17"},{"id":"7-ELEVEN_MA010120220801220133","brand":"7-ELEVEN","name":"세븐일레븐부평청천점","lat":37.5062186088501,"lng":126.720532657104,"address":"인천광역시 부평구 청천동 302-65"},{"id":"7-ELEVEN_MA010120220801157836","brand":"7-ELEVEN","name":"세븐인천하늘고점","lat":37.4949340676229,"lng":126.507088538621,"address":"인천광역시 중구 운서동 569"},{"id":"CU_MA010120220801193557","brand":"CU","name":"씨유계산그랜드점","lat":37.5461604181941,"lng":126.728474481581,"address":"인천광역시 계양구 계산동 906-77"},{"id":"7-ELEVEN_MA010120220801158010","brand":"7-ELEVEN","name":"세븐인천금호점주","lat":37.4502453497248,"lng":126.633776596094,"address":"인천광역시 미추홀구 용현동 627-286"},{"id":"GS25_MA010120220801205943","brand":"GS25","name":"GS25산곡대진","lat":37.5052058371342,"lng":126.715232177707,"address":"인천광역시 부평구 청천동 236"},{"id":"CU_MA010120220801227236","brand":"CU","name":"씨유산곡삼보점","lat":37.5045231796186,"lng":126.697942383663,"address":"인천광역시 부평구 산곡동 180-390"},{"id":"GS25_MA010120220801239064","brand":"GS25","name":"GS25","lat":37.5415703372766,"lng":126.726737271651,"address":"인천광역시 계양구 계산동 951-13"},{"id":"GS25_MA010120220801217974","brand":"GS25","name":"GS25산곡현대","lat":37.4925315775264,"lng":126.705374672765,"address":"인천광역시 부평구 산곡동 311-37"},{"id":"CU_MA010120220801213184","brand":"CU","name":"씨유부평일신동","lat":37.4842185711383,"lng":126.745556875148,"address":"인천광역시 부평구 일신동 108-12"},{"id":"7-ELEVEN_MA010120220801210025","brand":"7-ELEVEN","name":"세븐일레븐청천농장점","lat":37.5205034093978,"lng":126.689631517643,"address":"인천광역시 부평구 청천동 58-124"},{"id":"7-ELEVEN_MA010120220801158103","brand":"7-ELEVEN","name":"세븐인천용현점주","lat":37.4520593927382,"lng":126.634750998124,"address":"인천광역시 미추홀구 용현동 630-77"},{"id":"7-ELEVEN_MA010120220801448361","brand":"7-ELEVEN","name":"세븐신현점","lat":37.5173612063262,"lng":126.673763135461,"address":"인천광역시 서구 가정동 515"},{"id":"7-ELEVEN_MA010120220802154763","brand":"7-ELEVEN","name":"세븐인천만수제일점주","lat":37.4557905328069,"lng":126.724902246644,"address":"인천광역시 남동구 만수동 908-20"},{"id":"7-ELEVEN_MA010120220802155292","brand":"7-ELEVEN","name":"세븐송도커넬워크점주","lat":37.399123217164,"lng":126.637131283269,"address":"인천광역시 연수구 송도동 19-1"},{"id":"CU_MA010120220802077722","brand":"CU","name":"씨유숭의","lat":37.4615681816389,"lng":126.644651490058,"address":"인천광역시 미추홀구 숭의동 170-47"},{"id":"CU_MA010120220802098984","brand":"CU","name":"씨유구월","lat":37.4521716984134,"lng":126.722429121497,"address":"인천광역시 남동구 구월동 349-420"},{"id":"EMART24_MA010120220801966059","brand":"EMART24","name":"이마트24인천서구우성점","lat":37.5498888835194,"lng":126.671120479682,"address":"인천광역시 서구 연희동 729-1"},{"id":"7-ELEVEN_MA010120220802119586","brand":"7-ELEVEN","name":"세븐일레븐인천간석영남점","lat":37.4676383873922,"lng":126.691873628457,"address":"인천광역시 남동구 간석동 617-107"},{"id":"7-ELEVEN_MA010120220802154589","brand":"7-ELEVEN","name":"코리아세븐구월주","lat":37.4438974737706,"lng":126.702695159114,"address":"인천광역시 남동구 구월동 1471-1"},{"id":"CU_MA010120220802144967","brand":"CU","name":"CU구월아델라이","lat":37.4520074855448,"lng":126.703058622376,"address":"인천광역시 남동구 구월동 1129"},{"id":"7-ELEVEN_MA010120220802083047","brand":"7-ELEVEN","name":"세븐일레븐청학한라","lat":37.4269632521857,"lng":126.667309256828,"address":"인천광역시 연수구 청학동 538-13"},{"id":"CU_MA010120220802154965","brand":"CU","name":"씨유송도스마트밸리점","lat":37.3666451386433,"lng":126.647278391163,"address":"인천광역시 연수구 송도동 214"},{"id":"7-ELEVEN_MA010120220802154336","brand":"7-ELEVEN","name":"세븐인천송도３호주","lat":37.4179454701126,"lng":126.652132685907,"address":"인천광역시 연수구 옥련동 563"},{"id":"GS25_MA010120220802097802","brand":"GS25","name":"GS25간석","lat":37.4641154964082,"lng":126.713376068433,"address":"인천광역시 남동구 간석동 123-1"},{"id":"CU_MA010120220802106556","brand":"CU","name":"씨유용현","lat":37.4442792725261,"lng":126.642145454324,"address":"인천광역시 미추홀구 용현동 627-534"},{"id":"CU_MA010120220802008083","brand":"CU","name":"씨유석모도민머루점","lat":37.651476962745,"lng":126.333971831451,"address":"인천광역시 강화군 삼산면 매음리 871"},{"id":"CU_MA010120220802497969","brand":"CU","name":"씨유당하탑스빌","lat":37.590064078673,"lng":126.67436318281,"address":"인천광역시 서구 당하동 895-1"},{"id":"CU_MA010120220802124925","brand":"CU","name":"씨유청학","lat":37.4284937027709,"lng":126.663675779355,"address":"인천광역시 연수구 청학동 528-1"},{"id":"GS25_MA010120220802114131","brand":"GS25","name":"지에스25하이비젼점","lat":37.4520889053957,"lng":126.70679916507,"address":"인천광역시 남동구 구월동 1141-7"},{"id":"GS25_MA010120220802097824","brand":"GS25","name":"GS25인천","lat":37.4542447179222,"lng":126.704146074745,"address":"인천광역시 남동구 구월동 1136-14"},{"id":"7-ELEVEN_MA010120220802154357","brand":"7-ELEVEN","name":"세븐간석４호점주","lat":37.4645629779107,"lng":126.708457300872,"address":"인천광역시 남동구 간석동 211-2"},{"id":"GS25_MA010120220802100214","brand":"GS25","name":"GS25구월시티점","lat":37.4512439874067,"lng":126.70399967149,"address":"인천광역시 남동구 구월동 1129-22"},{"id":"7-ELEVEN_MA010120220801940392","brand":"7-ELEVEN","name":"세븐일레븐가좌공단점","lat":37.4900363918953,"lng":126.655620545497,"address":"인천광역시 서구 가좌동 178-86"},{"id":"GS25_MA010120220802081348","brand":"GS25","name":"GS25용현인하","lat":37.4493317693429,"lng":126.662859228296,"address":"인천광역시 미추홀구 용현동 49-22"},{"id":"7-ELEVEN_MA010120220802252907","brand":"7-ELEVEN","name":"세븐인천논현주공점","lat":37.4088197249577,"lng":126.713123763442,"address":"인천광역시 남동구 논현동 564-3"},{"id":"7-ELEVEN_MA010120220802264039","brand":"7-ELEVEN","name":"세븐일레븐송도아데니움점","lat":37.3982034459183,"lng":126.648824583907,"address":"인천광역시 연수구 송도동 20-18"},{"id":"7-ELEVEN_MA010120220802123756","brand":"7-ELEVEN","name":"세븐일레븐호구포역점","lat":37.40224029355,"lng":126.708619866888,"address":"인천광역시 남동구 논현동 646-2"},{"id":"CU_MA010120220802105360","brand":"CU","name":"씨유송도프라자","lat":37.3958174166157,"lng":126.652438258387,"address":"인천광역시 연수구 송도동 2-6"},{"id":"7-ELEVEN_MA010120220802084831","brand":"7-ELEVEN","name":"코리아세븐만수","lat":37.4457851374111,"lng":126.738951832941,"address":"인천광역시 남동구 만수동 1094-8"},{"id":"7-ELEVEN_MA010120220802125652","brand":"7-ELEVEN","name":"세븐일레븐인천소래풍림점","lat":37.4058597465334,"lng":126.738311076702,"address":"인천광역시 남동구 논현동 577"},{"id":"GS25_MA010120220802136782","brand":"GS25","name":"GS25간석오피앙점","lat":37.4655481129482,"lng":126.706045780586,"address":"인천광역시 남동구 간석동 249-5"},{"id":"7-ELEVEN_MA010120220802154314","brand":"7-ELEVEN","name":"세븐인천간석점주","lat":37.4632087953915,"lng":126.71474723879,"address":"인천광역시 남동구 간석동 39-8"},{"id":"EMART24_MA010120220802136740","brand":"EMART24","name":"이마트24숭의햇빛점","lat":37.4593236513505,"lng":126.647318263915,"address":"인천광역시 미추홀구 숭의동 296-1"},{"id":"CU_MA010120220801793819","brand":"CU","name":"씨유을왕리점","lat":37.44673635065,"lng":126.373275769713,"address":"인천광역시 중구 을왕동 755-16"},{"id":"7-ELEVEN_MA010120220802154390","brand":"7-ELEVEN","name":"세븐인천청학점주","lat":37.4171824506853,"lng":126.675305226332,"address":"인천광역시 연수구 청학동 497-6"},{"id":"CU_MA010120220802130862","brand":"CU","name":"CU청학비류점","lat":37.4277227916072,"lng":126.661905437389,"address":"인천광역시 연수구 청학동 524-13"},{"id":"GS25_MA010120220802497417","brand":"GS25","name":"지에스25강화드림","lat":37.7509506446956,"lng":126.493038370861,"address":"인천광역시 강화군 강화읍 옥림리 1052-2"},{"id":"CU_MA010120220802102276","brand":"CU","name":"씨유남동예성점","lat":37.4093801472196,"lng":126.695817247877,"address":"인천광역시 남동구 논현동 448-1"},{"id":"7-ELEVEN_MA010120220802155147","brand":"7-ELEVEN","name":"세븐인천소래역점","lat":37.4014272199713,"lng":126.73448649698,"address":"인천광역시 남동구 논현동 671-3"},{"id":"7-ELEVEN_MA010120220802135093","brand":"7-ELEVEN","name":"세븐일레븐만수주공","lat":37.4562315948025,"lng":126.736575943751,"address":"인천광역시 남동구 만수동 14"},{"id":"7-ELEVEN_MA010120220802154805","brand":"7-ELEVEN","name":"세븐인천구월이노점주","lat":37.4458050930825,"lng":126.701693143886,"address":"인천광역시 남동구 구월동 1457"},{"id":"CU_MA010120220802134390","brand":"CU","name":"씨유연수사랑가득점","lat":37.4156583115584,"lng":126.684766743981,"address":"인천광역시 연수구 연수동 578-2"},{"id":"GS25_MA010120220802089695","brand":"GS25","name":"GS25옥련백산점","lat":37.4230229279836,"lng":126.644641670089,"address":"인천광역시 연수구 옥련동 463-24"},{"id":"CU_MA010120220802142635","brand":"CU","name":"씨유","lat":37.467157578544,"lng":126.712007977546,"address":"인천광역시 남동구 간석동 88-19"},{"id":"CU_MA010120220802125287","brand":"CU","name":"씨유논현단풍점","lat":37.4063151014835,"lng":126.732424884459,"address":"인천광역시 남동구 논현동 602-1"},{"id":"EMART24_MA010120220802089668","brand":"EMART24","name":"이마트24R도화","lat":37.4609030771563,"lng":126.676596970129,"address":"인천광역시 미추홀구 도화동 368-19"},{"id":"7-ELEVEN_MA010120220802136786","brand":"7-ELEVEN","name":"세븐일레븐인천구월스마일점","lat":37.4508822548373,"lng":126.722004428074,"address":"인천광역시 남동구 구월동 1278-27"},{"id":"7-ELEVEN_MA010120220802154716","brand":"7-ELEVEN","name":"세븐구월인주로점주","lat":37.4491834318339,"lng":126.712415935026,"address":"인천광역시 남동구 구월동 284-4"},{"id":"GS25_MA010120220802498808","brand":"GS25","name":"지에스25불로","lat":37.6180464289063,"lng":126.690245912213,"address":"인천광역시 서구 불로동 312-2"},{"id":"CU_MA010120220802084680","brand":"CU","name":"씨유작은","lat":37.4482650788193,"lng":126.720205931381,"address":"인천광역시 남동구 구월동 1291-10"},{"id":"7-ELEVEN_MA010120220802134916","brand":"7-ELEVEN","name":"세븐일레븐인천남촌","lat":37.4274949842011,"lng":126.7156962536,"address":"인천광역시 남동구 남촌동 256-12"},{"id":"CU_MA010120220802128610","brand":"CU","name":"씨유소래","lat":37.4000809541103,"lng":126.736840377613,"address":"인천광역시 남동구 논현동 678-3"},{"id":"CU_MA010120220802134873","brand":"CU","name":"씨유구월","lat":37.4490855351637,"lng":126.705590351868,"address":"인천광역시 남동구 구월동 201-39"},{"id":"GS25_MA010120220802141311","brand":"GS25","name":"GS25연수선학점","lat":37.4284475495831,"lng":126.696564881916,"address":"인천광역시 연수구 선학동 398-2"},{"id":"7-ELEVEN_MA010120220802154798","brand":"7-ELEVEN","name":"세븐인천구월백세점주","lat":37.4530699851879,"lng":126.702783177628,"address":"인천광역시 남동구 구월동 1131-13"},{"id":"EMART24_MA010120220802085189","brand":"EMART24","name":"이마트24연수평화점","lat":37.4106914328502,"lng":126.677242179706,"address":"인천광역시 연수구 동춘동 923"},{"id":"GS25_MA010120220802142950","brand":"GS25","name":"지에스25간석마루","lat":37.4562346046052,"lng":126.696509164765,"address":"인천광역시 남동구 간석동 508-25"},{"id":"7-ELEVEN_MA010120220802143727","brand":"7-ELEVEN","name":"세븐일레븐인천논현현대점","lat":37.398593306181,"lng":126.728443085658,"address":"인천광역시 남동구 논현동 749-1"},{"id":"7-ELEVEN_MA010120220802117408","brand":"7-ELEVEN","name":"세븐일레븐연수만인점","lat":37.4165878215913,"lng":126.678617627135,"address":"인천광역시 연수구 연수동 592-6"},{"id":"CU_MA010120220802082962","brand":"CU","name":"씨유인천남동공단","lat":37.3949744990884,"lng":126.707168596115,"address":"인천광역시 남동구 고잔동 257-33"},{"id":"7-ELEVEN_MA010120220802133248","brand":"7-ELEVEN","name":"세븐일레븐인천연수현대점","lat":37.428210206288,"lng":126.643792391595,"address":"인천광역시 연수구 옥련동 628"},{"id":"CU_MA010120220802112174","brand":"CU","name":"씨유구월형제점","lat":37.4470517713584,"lng":126.70660410614,"address":"인천광역시 남동구 구월동 1157-3"},{"id":"CU_MA010120220801837568","brand":"CU","name":"씨유부평","lat":37.4992402765661,"lng":126.73019377557,"address":"인천광역시 부평구 부평동 378-1"},{"id":"7-ELEVEN_MA010120220802154395","brand":"7-ELEVEN","name":"세븐인천간석시장점주","lat":37.4653974345575,"lng":126.71441111599,"address":"인천광역시 남동구 간석동 49-28"},{"id":"7-ELEVEN_MA010120220802135928","brand":"7-ELEVEN","name":"세븐일레븐","lat":37.4238962869555,"lng":126.644434188564,"address":"인천광역시 연수구 옥련동 194-4"},{"id":"GS25_MA010120220802079314","brand":"GS25","name":"GS25소래풍림점","lat":37.4054429268395,"lng":126.737250824227,"address":"인천광역시 남동구 논현동 66-39"},{"id":"EMART24_MA010120220802089557","brand":"EMART24","name":"이마트24R청학","lat":37.4180875181525,"lng":126.673505161867,"address":"인천광역시 연수구 청학동 470-5"},{"id":"EMART24_MA010120220802129621","brand":"EMART24","name":"이마트24","lat":37.4506536161645,"lng":126.705719824221,"address":"인천광역시 남동구 구월동 1146-3"},{"id":"CU_MA010120220802130574","brand":"CU","name":"씨유구월타운","lat":37.4529808224256,"lng":126.703156491134,"address":"인천광역시 남동구 구월동 1132"},{"id":"GS25_MA010120220802131294","brand":"GS25","name":"GS25송도타운점","lat":37.3953923162795,"lng":126.651886855904,"address":"인천광역시 연수구 송도동 3-4"},{"id":"CU_MA010120220802119343","brand":"CU","name":"씨유연수","lat":37.4244281709548,"lng":126.682515662695,"address":"인천광역시 연수구 연수동 507-14"},{"id":"7-ELEVEN_MA010120220802154382","brand":"7-ELEVEN","name":"세븐인천논현점주","lat":37.4134497009278,"lng":126.712609087134,"address":"인천광역시 남동구 논현동 562-1"},{"id":"GS25_MA010120220802123679","brand":"GS25","name":"GS25청학타운점","lat":37.4277261102033,"lng":126.666243866164,"address":"인천광역시 연수구 청학동 535-15"},{"id":"7-ELEVEN_MA010120220802155036","brand":"7-ELEVEN","name":"세븐연수푸른점주","lat":37.4254222131656,"lng":126.683607341299,"address":"인천광역시 연수구 연수동 512"},{"id":"GS25_MA010120220802110484","brand":"GS25","name":"GS２５연수청학점","lat":37.4255010023365,"lng":126.68274838442,"address":"인천광역시 연수구 연수동 507-1"},{"id":"7-ELEVEN_MA010120220802154318","brand":"7-ELEVEN","name":"세븐인천송도2주","lat":37.4171571346172,"lng":126.650622609401,"address":"인천광역시 연수구 옥련동 552-7"},{"id":"CU_MA010120220802140318","brand":"CU","name":"씨유남촌","lat":37.4318604453766,"lng":126.71384935992,"address":"인천광역시 남동구 남촌동 349-13"},{"id":"CU_MA010120220802116919","brand":"CU","name":"씨유청학청량산점","lat":37.4255382885633,"lng":126.663643808902,"address":"인천광역시 연수구 청학동 561-6"},{"id":"CU_MA010120220801774910","brand":"CU","name":"씨유연수함박점","lat":37.4245905454498,"lng":126.685960734491,"address":"인천광역시 연수구 연수동 524-6"},{"id":"GS25_MA010120220802119722","brand":"GS25","name":"GS25인천논현","lat":37.4015158279714,"lng":126.72207395538,"address":"인천광역시 남동구 논현동 632-1"},{"id":"CU_MA010120220802120363","brand":"CU","name":"씨유송도IT센터","lat":37.3818172338047,"lng":126.662337463486,"address":"인천광역시 연수구 송도동 172-1"},{"id":"EMART24_MA010120220802261777","brand":"EMART24","name":"이마트24구월클로버점","lat":37.4501665363065,"lng":126.724176949557,"address":"인천광역시 남동구 구월동 1296-1"},{"id":"EMART24_MA010120220802112469","brand":"EMART24","name":"이마트24R연수소망점","lat":37.4259854155848,"lng":126.678622652996,"address":"인천광역시 연수구 연수동 484-1"},{"id":"7-ELEVEN_MA010120220802098305","brand":"7-ELEVEN","name":"케이세븐","lat":37.4179454701126,"lng":126.652132685907,"address":"인천광역시 연수구 옥련동 563"},{"id":"GS25_MA010120220802077709","brand":"GS25","name":"GS25남구숭의점","lat":37.4586623985572,"lng":126.649163705941,"address":"인천광역시 미추홀구 숭의동 283-11"},{"id":"GS25_MA010120220802111370","brand":"GS25","name":"GS25","lat":37.3924227471188,"lng":126.653176666753,"address":"인천광역시 연수구 송도동 3-13"},{"id":"7-ELEVEN_MA010120220802087338","brand":"7-ELEVEN","name":"세븐일레븐인천간석한마음점","lat":37.4665600201264,"lng":126.710823361817,"address":"인천광역시 남동구 간석동 102-5"},{"id":"7-ELEVEN_MA010120220802131289","brand":"7-ELEVEN","name":"세븐일레븐인천청학서해점","lat":37.4213674861515,"lng":126.667141964458,"address":"인천광역시 연수구 청학동 450"},{"id":"CU_MA010120220802306559","brand":"CU","name":"씨유검암","lat":37.5643327717443,"lng":126.678006632897,"address":"인천광역시 서구 검암동 525-1"},{"id":"7-ELEVEN_MA010120220802112745","brand":"7-ELEVEN","name":"세븐일레븐인천도림주공점","lat":37.4191777478378,"lng":126.73071850263,"address":"인천광역시 남동구 도림동 629-1"},{"id":"7-ELEVEN_MA010120220802120451","brand":"7-ELEVEN","name":"세븐일레븐청학우리","lat":37.4264018992634,"lng":126.66316543651,"address":"인천광역시 연수구 청학동 560-7"},{"id":"GS25_MA010120220802131307","brand":"GS25","name":"GS25간석갤럭시점","lat":37.4646152509029,"lng":126.707733668023,"address":"인천광역시 남동구 간석동 277-1"},{"id":"CU_MA010120220802143829","brand":"CU","name":"씨유송도센트럴파크","lat":37.397427804562,"lng":126.636642544662,"address":"인천광역시 연수구 송도동 23-3"},{"id":"EMART24_MA010120220802090607","brand":"EMART24","name":"이마트24R동춘무지개점","lat":37.4012829366965,"lng":126.670031748335,"address":"인천광역시 연수구 동춘동 931"},{"id":"EMART24_MA010120220802134785","brand":"EMART24","name":"이마트24","lat":37.46828973338,"lng":126.707075027005,"address":"인천광역시 남동구 간석동 228-19"},{"id":"GS25_MA010120220802131993","brand":"GS25","name":"GS25남동","lat":37.4513491870542,"lng":126.710090816591,"address":"인천광역시 남동구 구월동 1201-23"},{"id":"7-ELEVEN_MA010120220802154326","brand":"7-ELEVEN","name":"세븐인천간석３호주","lat":37.4572593244361,"lng":126.699081989685,"address":"인천광역시 남동구 간석동 748-8"},{"id":"7-ELEVEN_MA010120220802112986","brand":"7-ELEVEN","name":"세븐일레븐만수대로점","lat":37.4559278428897,"lng":126.721974451094,"address":"인천광역시 남동구 만수동 906-2"},{"id":"CU_MA010120220802140659","brand":"CU","name":"CU청학현대","lat":37.4275998175235,"lng":126.669396572337,"address":"인천광역시 연수구 청학동 551-3"},{"id":"GS25_MA010120220802123297","brand":"GS25","name":"GS25만수전원점","lat":37.4511980743559,"lng":126.73798369057,"address":"인천광역시 남동구 만수동 423-15"},{"id":"7-ELEVEN_MA010120220801785224","brand":"7-ELEVEN","name":"세븐일레븐서구마전풍림점","lat":37.6124460473865,"lng":126.658930319503,"address":"인천광역시 서구 마전동 1150"},{"id":"CU_MA010120220802087922","brand":"CU","name":"씨유송도유원지","lat":37.418416900113,"lng":126.650063222465,"address":"인천광역시 연수구 옥련동 548"},{"id":"7-ELEVEN_MA010120220802079874","brand":"7-ELEVEN","name":"세븐일레븐인천","lat":37.4502512064796,"lng":126.663002020332,"address":"인천광역시 미추홀구 용현동 79-12"},{"id":"GS25_MA010120220802315695","brand":"GS25","name":"지에스25주안미추홀점","lat":37.4573790166265,"lng":126.679494282165,"address":"인천광역시 미추홀구 주안동 468-11"},{"id":"CU_MA010120220802115079","brand":"CU","name":"씨유간석벽산점","lat":37.4642405138665,"lng":126.720428998669,"address":"인천광역시 남동구 간석동 225-19"},{"id":"7-ELEVEN_MA010120220802154861","brand":"7-ELEVEN","name":"코리아세븐연수주","lat":37.4140778852545,"lng":126.676741922057,"address":"인천광역시 연수구 연수동 597-4"},{"id":"EMART24_MA010120220802104713","brand":"EMART24","name":"이마트24송도아라점","lat":37.3880879395509,"lng":126.6349147696,"address":"인천광역시 연수구 송도동 98-2"},{"id":"EMART24_MA010120220802966593","brand":"EMART24","name":"이마트24계양세종","lat":37.5325382781563,"lng":126.736850860989,"address":"인천광역시 계양구 작전동 909"},{"id":"CU_MA010120220802552570","brand":"CU","name":"씨유가좌라이프","lat":37.4931351601637,"lng":126.684407483002,"address":"인천광역시 서구 가좌동 30-132"},{"id":"7-ELEVEN_MA010120220802574209","brand":"7-ELEVEN","name":"세븐일레븐강화고려점","lat":37.7484909720584,"lng":126.484715432811,"address":"인천광역시 강화군 강화읍 관청리 610"},{"id":"CU_MA010120220802967876","brand":"CU","name":"씨유계산","lat":37.5440397807666,"lng":126.727045094542,"address":"인천광역시 계양구 계산동 921-14"},{"id":"7-ELEVEN_MA010120220802934463","brand":"7-ELEVEN","name":"세븐인천만수동양점","lat":37.4650207136684,"lng":126.738500643041,"address":"인천광역시 남동구 만수동 1-162"},{"id":"EMART24_MA010120220802778939","brand":"EMART24","name":"이마트24검단","lat":37.6026029546467,"lng":126.657435140968,"address":"인천광역시 서구 마전동 910-1"},{"id":"CU_MA010120220802927060","brand":"CU","name":"씨유마전","lat":37.6135854543122,"lng":126.660374855041,"address":"인천광역시 서구 마전동 1125-18"},{"id":"7-ELEVEN_MA010120220802904360","brand":"7-ELEVEN","name":"세븐구월시티점","lat":37.4506095222171,"lng":126.70610424739,"address":"인천광역시 남동구 구월동 1146-5"},{"id":"7-ELEVEN_MA010120220802598174","brand":"7-ELEVEN","name":"세븐인천검단점","lat":37.6012144318196,"lng":126.660204615793,"address":"인천광역시 서구 마전동 982-1"},{"id":"EMART24_MA010120220802926116","brand":"EMART24","name":"이마트24서구원창","lat":37.5090595818978,"lng":126.626952114892,"address":"인천광역시 서구 원창동 392-20"},{"id":"CU_MA010120220802563130","brand":"CU","name":"씨유검단제이원점","lat":37.6022759379116,"lng":126.656519366212,"address":"인천광역시 서구 왕길동 638-4"},{"id":"7-ELEVEN_MA010120220802529983","brand":"7-ELEVEN","name":"세븐일레븐강화분","lat":37.5968285593411,"lng":126.462040434013,"address":"인천광역시 강화군 화도면 사기리 485-1"},{"id":"CU_MA010120220802579839","brand":"CU","name":"씨유강화신문점","lat":37.747408073987,"lng":126.482260775272,"address":"인천광역시 강화군 강화읍 신문리 712"},{"id":"GS25_MA010120220802527097","brand":"GS25","name":"지에스25계양현대점","lat":37.5292292606139,"lng":126.716374027513,"address":"인천광역시 계양구 효성동 280-5"},{"id":"CU_MA010120220802583445","brand":"CU","name":"씨유당하홀리랜드점","lat":37.5881206796849,"lng":126.675356683901,"address":"인천광역시 서구 당하동 1098-5"},{"id":"7-ELEVEN_MA010120220802927022","brand":"7-ELEVEN","name":"세븐일레븐인천구월백세점","lat":37.4530699851879,"lng":126.702783177628,"address":"인천광역시 남동구 구월동 1131-13"},{"id":"CU_MA010120220802577772","brand":"CU","name":"씨유원당베스트점","lat":37.5899407318958,"lng":126.702737939081,"address":"인천광역시 서구 당하동 1044-3"},{"id":"EMART24_MA010120220802561943","brand":"EMART24","name":"이마트24R검암1지구점","lat":37.5650576068891,"lng":126.67292139768,"address":"인천광역시 서구 검암동 601-1"},{"id":"CU_MA010120220802571516","brand":"CU","name":"씨유청라힐데스하임점","lat":37.52889930305,"lng":126.653484759003,"address":"인천광역시 서구 청라동 186-12"},{"id":"CU_MA010120220802544967","brand":"CU","name":"씨유서구서곶점","lat":37.5487875060868,"lng":126.670344495506,"address":"인천광역시 서구 연희동 733-2"},{"id":"CU_MA010120220802978827","brand":"CU","name":"씨유원창","lat":37.5090258594636,"lng":126.645252289998,"address":"인천광역시 서구 원창동 381-49"},{"id":"CU_MA010120220802571767","brand":"CU","name":"씨유가좌청기와점","lat":37.490017115927,"lng":126.670987398509,"address":"인천광역시 서구 가좌동 162-8"},{"id":"GS25_MA010120220802511778","brand":"GS25","name":"GS25인하사랑","lat":37.4531950682671,"lng":126.659010558405,"address":"인천광역시 미추홀구 용현동 183-11"},{"id":"CU_MA010120220802686418","brand":"CU","name":"씨유서창아페리온점","lat":37.4248221266621,"lng":126.748921341839,"address":"인천광역시 남동구 서창동 687-3"},{"id":"CU_MA010120220802682270","brand":"CU","name":"씨유석남월드메르디앙점","lat":37.5112260689299,"lng":126.670758597459,"address":"인천광역시 서구 석남동 453-22"},{"id":"7-ELEVEN_MA010120220802923399","brand":"7-ELEVEN","name":"세븐일레븐강화해안남로점","lat":37.6360613385677,"lng":126.38197604352,"address":"인천광역시 강화군 화도면 내리 2055"},{"id":"GS25_MA010120220802690680","brand":"GS25","name":"GS인천공항인재원점","lat":37.4551791462519,"lng":126.385366314744,"address":"인천광역시 중구 을왕동 835-2"},{"id":"EMART24_MA010120220802584845","brand":"EMART24","name":"이마트24검단어울림점","lat":37.5956960907469,"lng":126.640504392555,"address":"인천광역시 서구 왕길동 697-1"},{"id":"7-ELEVEN_MA010120220802572628","brand":"7-ELEVEN","name":"세븐일레븐강화합일점","lat":37.7450417614433,"lng":126.48299205958,"address":"인천광역시 강화군 강화읍 신문리 282"},{"id":"7-ELEVEN_MA010120220802567760","brand":"7-ELEVEN","name":"세븐일레븐강화내가점","lat":37.7149564811806,"lng":126.391902797944,"address":"인천광역시 강화군 내가면 고천리 1134-5"},{"id":"7-ELEVEN_MA010120220802597703","brand":"7-ELEVEN","name":"세븐인천심곡제일점주","lat":37.5455138440469,"lng":126.672486279422,"address":"인천광역시 서구 심곡동 325-8"},{"id":"GS25_MA010120220802580487","brand":"GS25","name":"지에스25강화","lat":37.6976762374679,"lng":126.480509141186,"address":"인천광역시 강화군 불은면 두운리 47-8"},{"id":"7-ELEVEN_MA010120220802580737","brand":"7-ELEVEN","name":"세븐일레븐신현점","lat":37.5173612063262,"lng":126.673763135461,"address":"인천광역시 서구 가정동 515"},{"id":"EMART24_MA010120220802901869","brand":"EMART24","name":"이마트24R서구경서타운점","lat":37.5580426064965,"lng":126.652161489886,"address":"인천광역시 서구 경서동 729-5"},{"id":"CU_MA010120220802583770","brand":"CU","name":"씨유가좌4동점","lat":37.4859278959623,"lng":126.688089898607,"address":"인천광역시 서구 가좌동 378-12"},{"id":"GS25_MA010120220802560688","brand":"GS25","name":"GS25석남길주점","lat":37.5065925980629,"lng":126.673165338432,"address":"인천광역시 서구 석남동 503-8"},{"id":"7-ELEVEN_MA010120220802582962","brand":"7-ELEVEN","name":"세븐일레븐연희점","lat":37.5477139379335,"lng":126.67635808252,"address":"인천광역시 서구 연희동 687-14"},{"id":"GS25_MA010120220802535402","brand":"GS25","name":"GS25서구하늘채점","lat":37.5172720206015,"lng":126.670845151601,"address":"인천광역시 서구 신현동 279-13"},{"id":"7-ELEVEN_MA010120220802597148","brand":"7-ELEVEN","name":"세븐인천심곡점주","lat":37.5419367314024,"lng":126.675692826925,"address":"인천광역시 서구 심곡동 256"},{"id":"CU_MA010120220802781285","brand":"CU","name":"씨유동검","lat":37.5926592417172,"lng":126.514506575135,"address":"인천광역시 강화군 길상면 동검리 54"},{"id":"CU_MA010120220802580749","brand":"CU","name":"씨유신석초교점","lat":37.5112196931941,"lng":126.665284292584,"address":"인천광역시 서구 석남동 183-73"},{"id":"CU_MA010120220802668403","brand":"CU","name":"씨유남동","lat":37.4349099004037,"lng":126.751486448499,"address":"인천광역시 남동구 서창동 565-7"},{"id":"GS25_MA010120220802597647","brand":"GS25","name":"지에스리테일GS25N김포2사점주","lat":37.6236125635218,"lng":126.638852097674,"address":"인천광역시 서구 금곡동 산 9-1"},{"id":"GS25_MA010120220802671473","brand":"GS25","name":"지에스25주안달님점","lat":37.4627532355201,"lng":126.691226781229,"address":"인천광역시 미추홀구 주안동 927-26"},{"id":"CU_MA010120220802526611","brand":"CU","name":"씨유부평5동점","lat":37.4942683485271,"lng":126.7309014544,"address":"인천광역시 부평구 부평동 364-11"},{"id":"CU_MA010120220802550026","brand":"CU","name":"씨유심곡","lat":37.5442253734356,"lng":126.672469285017,"address":"인천광역시 서구 심곡동 333-9"},{"id":"EMART24_MA010120220802532361","brand":"EMART24","name":"이마트24서구","lat":37.496942749025,"lng":126.669882713738,"address":"인천광역시 서구 가좌동 139-16"},{"id":"GS25_MA010120220802928746","brand":"GS25","name":"지에스25만수나래점","lat":37.4464459099483,"lng":126.73625993121,"address":"인천광역시 남동구 만수동 1086-1"},{"id":"CU_MA010120220802938881","brand":"CU","name":"씨유인하생활관","lat":37.4497401954631,"lng":126.654528308548,"address":"인천광역시 미추홀구 용현동 88-21"},{"id":"GS25_MA010120220802577053","brand":"GS25","name":"지에스25서부엘지","lat":37.5537433654749,"lng":126.64260727184,"address":"인천광역시 서구 경서동 363-80"},{"id":"GS25_MA010120220802561986","brand":"GS25","name":"GS25강화서문","lat":37.7482294389437,"lng":126.476479678503,"address":"인천광역시 강화군 강화읍 국화리 188-7"},{"id":"7-ELEVEN_MA010120220802576747","brand":"7-ELEVEN","name":"세븐일레븐인천왕길점","lat":37.5985257007468,"lng":126.649663057882,"address":"인천광역시 서구 왕길동 138-1"},{"id":"CU_MA010120220802648635","brand":"CU","name":"씨유운남관창로점","lat":37.4915064141739,"lng":126.530472518551,"address":"인천광역시 중구 운남동 1531-9"},{"id":"CU_MA010120220802541001","brand":"CU","name":"씨유강화외포리수산","lat":37.7014742325411,"lng":126.377351195896,"address":"인천광역시 강화군 내가면 외포리 582-20"},{"id":"7-ELEVEN_MA010120220802579420","brand":"7-ELEVEN","name":"세븐일레븐원당","lat":37.5999582068902,"lng":126.698587462969,"address":"인천광역시 서구 원당동 806-1"},{"id":"GS25_MA010120220802566825","brand":"GS25","name":"GS25경서","lat":37.5592156468536,"lng":126.652755882954,"address":"인천광역시 서구 경서동 723-3"},{"id":"CU_MA010120220802557484","brand":"CU","name":"씨유검단서해점","lat":37.6050805248335,"lng":126.660504124928,"address":"인천광역시 서구 마전동 928-1"},{"id":"7-ELEVEN_MA010120220802597891","brand":"7-ELEVEN","name":"세븐인천가좌우수점주","lat":37.492939015222,"lng":126.67849430188,"address":"인천광역시 서구 가좌동 210-3"},{"id":"CU_MA010120220802672271","brand":"CU","name":"씨유논현사리울","lat":37.4118783131248,"lng":126.711124063001,"address":"인천광역시 남동구 논현동 563-3"},{"id":"CU_MA010120220802978262","brand":"CU","name":"씨유검단동아점","lat":37.5962695911098,"lng":126.673532175757,"address":"인천광역시 서구 마전동 1006-11"},{"id":"7-ELEVEN_MA010120220802671778","brand":"7-ELEVEN","name":"세븐일레븐인천간석","lat":37.4623903398886,"lng":126.707968393471,"address":"인천광역시 남동구 간석동 283-13"},{"id":"7-ELEVEN_MA010120220802572092","brand":"7-ELEVEN","name":"세븐일레븐강화화도점","lat":37.6338232070726,"lng":126.418462799651,"address":"인천광역시 강화군 화도면 상방리 808-3"},{"id":"GS25_MA010120220802552422","brand":"GS25","name":"GS25G강화가나안점","lat":37.613360693159,"lng":126.382718935843,"address":"인천광역시 강화군 화도면 장화리 1106-2"},{"id":"7-ELEVEN_MA010120220802573459","brand":"7-ELEVEN","name":"세븐일레븐인천가좌진주점","lat":37.4933177274293,"lng":126.681930282682,"address":"인천광역시 서구 가좌동 30-69"},{"id":"GS25_MA010120220802567052","brand":"GS25","name":"GS25강화나들길점","lat":37.6908051068403,"lng":126.519524975758,"address":"인천광역시 강화군 선원면 연리 56-11"},{"id":"CU_MA010120220802785143","brand":"CU","name":"씨유백운현대점","lat":37.4926327708461,"lng":126.706211053379,"address":"인천광역시 부평구 산곡동 311-130"},{"id":"7-ELEVEN_MA010120220802554764","brand":"7-ELEVEN","name":"세븐일레븐당하","lat":37.5932773194821,"lng":126.676443939843,"address":"인천광역시 서구 당하동 1092-10"},{"id":"GS25_MA010120220802801145","brand":"GS25","name":"GS25구월","lat":37.449367132593,"lng":126.699339631899,"address":"인천광역시 남동구 구월동 1347-1"},{"id":"GS25_MA010120220802739068","brand":"GS25","name":"지에스25계양병방점","lat":37.5494695982979,"lng":126.741646084527,"address":"인천광역시 계양구 병방동 109-30"},{"id":"CU_MA010120220802582039","brand":"CU","name":"씨유공촌경남점","lat":37.5516855612373,"lng":126.685711154741,"address":"인천광역시 서구 공촌동 307"},{"id":"7-ELEVEN_MA010120220802540485","brand":"7-ELEVEN","name":"세븐일레븐인천석남","lat":37.5074241652349,"lng":126.674123065875,"address":"인천광역시 서구 석남동 504-7"},{"id":"CU_MA010120220802535465","brand":"CU","name":"씨유，씨유비디오","lat":37.4888954304118,"lng":126.682537011016,"address":"인천광역시 서구 가좌동 247-1"},{"id":"CU_MA010120220802565515","brand":"CU","name":"씨유경서1지구점","lat":37.5584165331134,"lng":126.653698963085,"address":"인천광역시 서구 경서동 733-14"},{"id":"GS25_MA010120220802558502","brand":"GS25","name":"GS25서구가정점","lat":37.519441333327,"lng":126.673335540963,"address":"인천광역시 서구 가정동 504-8"},{"id":"CU_MA010120220802948658","brand":"CU","name":"씨유인천간석역","lat":37.4642189732707,"lng":126.693571887358,"address":"인천광역시 미추홀구 주안동 325-1"},{"id":"GS25_MA010120220802584577","brand":"GS25","name":"GS25당하청마로","lat":37.5882530822563,"lng":126.671110263765,"address":"인천광역시 서구 당하동 1087-5"},{"id":"EMART24_MA010120220802564433","brand":"EMART24","name":"이마트24강화동막","lat":37.5929041445135,"lng":126.458943571516,"address":"인천광역시 강화군 화도면 동막리 5-10"},{"id":"7-ELEVEN_MA010120220802560576","brand":"7-ELEVEN","name":"세븐일레븐검암점","lat":37.5580929220585,"lng":126.672917890373,"address":"인천광역시 서구 검암동 676-5"},{"id":"7-ELEVEN_MA010120220802573061","brand":"7-ELEVEN","name":"세븐일레븐강화해안도로점","lat":37.6773402972889,"lng":126.402287360597,"address":"인천광역시 강화군 양도면 건평리 751-1"},{"id":"GS25_MA010120220802967603","brand":"GS25","name":"지에스25불로해피점","lat":37.6099982638841,"lng":126.685941606917,"address":"인천광역시 서구 불로동 793-1"},{"id":"CU_MA010120220802563788","brand":"CU","name":"CU청천대우점","lat":37.5125402974512,"lng":126.707976701939,"address":"인천광역시 부평구 청천동 191-17"},{"id":"CU_MA010120220802541580","brand":"CU","name":"씨유강화동막점","lat":37.5938184359516,"lng":126.455958999464,"address":"인천광역시 강화군 화도면 동막리 61-20"},{"id":"CU_MA010120220802923486","brand":"CU","name":"씨유석남웰딩점","lat":37.5006945707139,"lng":126.658489326699,"address":"인천광역시 서구 석남동 223-608"},{"id":"CU_MA010120220802537478","brand":"CU","name":"씨유연안부두점","lat":37.4546015596881,"lng":126.601691421173,"address":"인천광역시 중구 항동7가 58-54"},{"id":"CU_MA010120220802740760","brand":"CU","name":"씨유송현주공점","lat":37.4794536978557,"lng":126.635951787823,"address":"인천광역시 동구 송현동 56-295"},{"id":"7-ELEVEN_MA010120220802580822","brand":"7-ELEVEN","name":"세븐일레븐인천원당","lat":37.5933019856432,"lng":126.692409293552,"address":"인천광역시 서구 당하동 1027-3"},{"id":"EMART24_MA010120220802534516","brand":"EMART24","name":"이마트24부평","lat":37.4708518809137,"lng":126.697648356101,"address":"인천광역시 부평구 십정동 316"},{"id":"7-ELEVEN_MA010120220802566332","brand":"7-ELEVEN","name":"세븐일레븐강화길상점","lat":37.6193274413921,"lng":126.534415827411,"address":"인천광역시 강화군 길상면 초지리 1324-16"},{"id":"GS25_MA010120220802582553","brand":"GS25","name":"GS25가좌건지","lat":37.4961203809076,"lng":126.678797297174,"address":"인천광역시 서구 가좌동 193-2"},{"id":"GS25_MA010120220802859266","brand":"GS25","name":"GS25검단블루텍","lat":37.5958675696797,"lng":126.614890052624,"address":"인천광역시 서구 오류동 1656-1"},{"id":"GS25_MA010120220802583952","brand":"GS25","name":"GS25가좌신명","lat":37.4963661143738,"lng":126.669885252015,"address":"인천광역시 서구 가좌동 139-6"},{"id":"GS25_MA010120220802573647","brand":"GS25","name":"GS25강화","lat":37.6266460464754,"lng":126.532806912873,"address":"인천광역시 강화군 길상면 초지리 1251-329"},{"id":"7-ELEVEN_MA010120220802742755","brand":"7-ELEVEN","name":"세븐일레븐인천거북","lat":37.5033445148122,"lng":126.671550941717,"address":"인천광역시 서구 석남동 537-9"},{"id":"CU_MA010120220802563387","brand":"CU","name":"씨유","lat":37.5162473378501,"lng":126.665307083922,"address":"인천광역시 서구 신현동 173-51"},{"id":"GS25_MA010120220802574759","brand":"GS25","name":"지에스25강화","lat":37.7429791977707,"lng":126.499843448377,"address":"인천광역시 강화군 강화읍 갑곳리 80-14"},{"id":"GS25_MA010120220803084293","brand":"GS25","name":"지에스25청라","lat":37.5516584687089,"lng":126.618422119211,"address":"인천광역시 서구 청라동 6-3"},{"id":"GS25_MA010120220803176204","brand":"GS25","name":"지에스25운남지서점","lat":37.4915100955484,"lng":126.531399717298,"address":"인천광역시 중구 운남동 1530-9"},{"id":"GS25_MA010120220803284133","brand":"GS25","name":"지에스25논현향촌점","lat":37.3980630738795,"lng":126.725135975941,"address":"인천광역시 남동구 논현동 740-2"},{"id":"7-ELEVEN_MA010120220803110871","brand":"7-ELEVEN","name":"강화인화리세븐일레븐","lat":37.7893710171078,"lng":126.370495231561,"address":"인천광역시 강화군 양사면 인화리 618-1"},{"id":"CU_MA010120220803278730","brand":"CU","name":"씨유가정3동점","lat":37.5147518916605,"lng":126.678355506099,"address":"인천광역시 서구 가정동 564-2"},{"id":"GS25_MA010120220803175134","brand":"GS25","name":"지에스25간석로얄점","lat":37.4655988487966,"lng":126.712013956711,"address":"인천광역시 남동구 간석동 117-14"},{"id":"CU_MA010120220803019964","brand":"CU","name":"씨유을왕영심이점","lat":37.44983679147,"lng":126.373464626919,"address":"인천광역시 중구 을왕동 762-25"},{"id":"GS25_MA010120220803213932","brand":"GS25","name":"지에스25부평타운점","lat":37.5004742795478,"lng":126.730031009463,"address":"인천광역시 부평구 부평동 377-24"},{"id":"CU_MA010120220803088649","brand":"CU","name":"씨유검단초교점","lat":37.6100776822704,"lng":126.668850999105,"address":"인천광역시 서구 마전동 1136-2"},{"id":"GS25_MA010120220803246171","brand":"GS25","name":"지에스25부평역사","lat":37.4895656909419,"lng":126.72335370452,"address":"인천광역시 부평구 부평동 738-21"},{"id":"GS25_MA010120220803174597","brand":"GS25","name":"지에스25광양프런티어","lat":37.4873727808998,"lng":126.675917545567,"address":"인천광역시 서구 가좌동 274-1"},{"id":"7-ELEVEN_MA010120220803055633","brand":"7-ELEVEN","name":"세븐연수능안점","lat":37.4237710449049,"lng":126.696470780141,"address":"인천광역시 연수구 선학동 363-6"},{"id":"GS25_MA010120220803016662","brand":"GS25","name":"GS25만수","lat":37.4568868815071,"lng":126.72366626567,"address":"인천광역시 남동구 만수동 902-5"},{"id":"CU_MA010120220803196867","brand":"CU","name":"씨유구월자올아이점","lat":37.4515290179166,"lng":126.699127549909,"address":"인천광역시 남동구 구월동 1110-9"},{"id":"GS25_MA010120220803012584","brand":"GS25","name":"지에스25간석드림","lat":37.4638537781357,"lng":126.698716458406,"address":"인천광역시 남동구 간석동 388-30"},{"id":"CU_MA010120220803230823","brand":"CU","name":"씨유중구보건소점","lat":37.4774216894357,"lng":126.628635682656,"address":"인천광역시 중구 전동 8-5"},{"id":"7-ELEVEN_MA010120220803343566","brand":"7-ELEVEN","name":"세븐일레븐효성은서점","lat":37.5254194190108,"lng":126.70229275259,"address":"인천광역시 계양구 효성동 545-8"},{"id":"7-ELEVEN_MA010120220803061483","brand":"7-ELEVEN","name":"세븐일레븐가좌한신1단지점","lat":37.4952705445111,"lng":126.684409805719,"address":"인천광역시 서구 가좌동 7"},{"id":"GS25_MA010120220803130467","brand":"GS25","name":"지에스25R인천연수6","lat":37.4170999804861,"lng":126.678095802495,"address":"인천광역시 연수구 연수동 592"},{"id":"7-ELEVEN_MA010120220803276267","brand":"7-ELEVEN","name":"세븐일레븐인천","lat":37.4171571346172,"lng":126.650622609401,"address":"인천광역시 연수구 옥련동 552-7"},{"id":"CU_MA010120220803111710","brand":"CU","name":"씨유숭의석정","lat":37.4638011852823,"lng":126.644154873803,"address":"인천광역시 미추홀구 숭의동 162-32"},{"id":"7-ELEVEN_MA010120220803355767","brand":"7-ELEVEN","name":"세븐일레븐인천간석","lat":37.4669608909555,"lng":126.70895666675,"address":"인천광역시 남동구 간석동 111-10"},{"id":"CU_MA010120220803325032","brand":"CU","name":"씨유계양계산로점","lat":37.539352790409,"lng":126.718598659339,"address":"인천광역시 계양구 계산동 984-7"},{"id":"EMART24_MA010120220803288606","brand":"EMART24","name":"이마트24부평길주남로점","lat":37.504099864854,"lng":126.73158998209,"address":"인천광역시 부평구 부평동 10-699"},{"id":"CU_MA010120220803272579","brand":"CU","name":"씨유석남우리점","lat":37.5055217619193,"lng":126.670410428675,"address":"인천광역시 서구 석남동 534"},{"id":"EMART24_MA010120220803352488","brand":"EMART24","name":"이마트24부평남부점","lat":37.4854815195047,"lng":126.722238091294,"address":"인천광역시 부평구 부평동 671-20"},{"id":"GS25_MA010120220803286109","brand":"GS25","name":"지에스25연수한국점","lat":37.4237591689373,"lng":126.649812413193,"address":"인천광역시 연수구 옥련동 642-1"},{"id":"CU_MA010120220803214948","brand":"CU","name":"씨유송도더테라스","lat":37.4108759742808,"lng":126.626682750504,"address":"인천광역시 연수구 송도동 316"},{"id":"CU_MA010120220803288585","brand":"CU","name":"씨유만수공원점","lat":37.4565382635399,"lng":126.728753619645,"address":"인천광역시 남동구 만수동 882-34"},{"id":"EMART24_MA010120220803061618","brand":"EMART24","name":"이마트24남구","lat":37.4608525981452,"lng":126.677908337474,"address":"인천광역시 미추홀구 주안동 216-14"},{"id":"EMART24_MA010120220803203263","brand":"EMART24","name":"이마트24폴리텍대학","lat":37.4791371712583,"lng":126.754200422557,"address":"인천광역시 부평구 구산동 39-1"},{"id":"EMART24_MA010120220803078896","brand":"EMART24","name":"이마트24동구동산점","lat":37.4715853755685,"lng":126.650018988392,"address":"인천광역시 동구 송림동 101-25"},{"id":"CU_MA010120220803332722","brand":"CU","name":"씨유삼산주차","lat":37.5078332917985,"lng":126.733035619477,"address":"인천광역시 부평구 삼산동 463-1"},{"id":"7-ELEVEN_MA010120220803135679","brand":"7-ELEVEN","name":"세븐일레븐인천남동","lat":37.4477154703849,"lng":126.731870665056,"address":"인천광역시 남동구 만수동 986-11"},{"id":"7-ELEVEN_MA010120220803238601","brand":"7-ELEVEN","name":"세븐청라자이점","lat":37.5295110961197,"lng":126.656265016034,"address":"인천광역시 서구 청라동 189-9"},{"id":"EMART24_MA010120220803116361","brand":"EMART24","name":"이마트24강화리조트점","lat":37.6171244035616,"lng":126.498116569911,"address":"인천광역시 강화군 길상면 선두리 산 343-2"},{"id":"CU_MA010120220803017078","brand":"CU","name":"씨유문학경","lat":37.438244336878,"lng":126.687259643296,"address":"인천광역시 미추홀구 문학동 380-8"},{"id":"CU_MA010120220803010176","brand":"CU","name":"씨유주안동행점","lat":37.4630674310231,"lng":126.687359742241,"address":"인천광역시 미추홀구 주안동 52-1"},{"id":"7-ELEVEN_MA010120220803160553","brand":"7-ELEVEN","name":"세븐일레븐인천영흥","lat":37.2615147258581,"lng":126.497994552293,"address":"인천광역시 옹진군 영흥면 내리 21-1"},{"id":"GS25_MA010120220803230885","brand":"GS25","name":"GS25강화길상점","lat":37.6390487632655,"lng":126.492632742395,"address":"인천광역시 강화군 길상면 온수리 551-41"},{"id":"GS25_MA010120220803210738","brand":"GS25","name":"지에스25마스터뷰","lat":37.3832972063226,"lng":126.629981094331,"address":"인천광역시 연수구 송도동 110"},{"id":"CU_MA010120220803279200","brand":"CU","name":"씨유더위크앤리조트","lat":37.4511309985075,"lng":126.371159643463,"address":"인천광역시 중구 을왕동 773"},{"id":"GS25_MA010120220803118505","brand":"GS25","name":"GS25작전삼우점","lat":37.535003082713,"lng":126.731105893966,"address":"인천광역시 계양구 작전동 28-10"},{"id":"GS25_MA010120220803163731","brand":"GS25","name":"지에스부평신촌","lat":37.4884518880482,"lng":126.709766575936,"address":"인천광역시 부평구 부평동 277-21"},{"id":"CU_MA010120220803101854","brand":"CU","name":"씨유계양동양점","lat":37.561246021302,"lng":126.754508155951,"address":"인천광역시 계양구 동양동 610"},{"id":"7-ELEVEN_MA010120220803334869","brand":"7-ELEVEN","name":"세븐일레븐편의점","lat":37.4940260218992,"lng":126.492654256132,"address":"인천광역시 중구 운서동 2804-3"},{"id":"GS25_MA010120220803143872","brand":"GS25","name":"지에스25부평파크","lat":37.4852045301558,"lng":126.727100996651,"address":"인천광역시 부평구 부평동 995"},{"id":"GS25_MA010120220803216567","brand":"GS25","name":"지에스25청천대로점","lat":37.5193062977966,"lng":126.70414955899,"address":"인천광역시 부평구 청천동 14-18"},{"id":"CU_MA010120220803010958","brand":"CU","name":"씨유부평향기점","lat":37.4978040566133,"lng":126.732562440004,"address":"인천광역시 부평구 부평동 127-1"},{"id":"GS25_MA010120220803231624","brand":"GS25","name":"지에스25강화세광점","lat":37.7234109452063,"lng":126.4791838396,"address":"인천광역시 강화군 선원면 창리 663-1"},{"id":"EMART24_MA010120220803550409","brand":"EMART24","name":"이마트24간석유영점","lat":37.4662098628446,"lng":126.71504104028,"address":"인천광역시 남동구 간석동 48-1"},{"id":"CU_MA010120220803446957","brand":"CU","name":"씨유영종스위첸점","lat":37.4925840506681,"lng":126.552775961783,"address":"인천광역시 중구 중산동 1879-1"},{"id":"CU_MA010120220803557156","brand":"CU","name":"씨유","lat":37.4759791673032,"lng":126.631220424453,"address":"인천광역시 중구 인현동 1-19"},{"id":"GS25_MA010120220803782082","brand":"GS25","name":"지에스25주안프라움점","lat":37.4663596136405,"lng":126.6819201862,"address":"인천광역시 미추홀구 주안동 23-1"},{"id":"7-ELEVEN_MA010120220803861616","brand":"7-ELEVEN","name":"세븐일레븐계양동양","lat":37.5602776851586,"lng":126.756797577144,"address":"인천광역시 계양구 동양동 623-7"},{"id":"7-ELEVEN_MA010120220803442781","brand":"7-ELEVEN","name":"세븐일레븐인천부평시장역점","lat":37.4988949892138,"lng":126.721181934917,"address":"인천광역시 부평구 부평동 529-35"},{"id":"GS25_MA010120220803558449","brand":"GS25","name":"지에스25가좌축산점","lat":37.4786063337041,"lng":126.686051390588,"address":"인천광역시 서구 가좌동 484"},{"id":"GS25_MA010120220803784271","brand":"GS25","name":"지에스25불로중앙","lat":37.6132732506131,"lng":126.684217601054,"address":"인천광역시 서구 불로동 774-7"},{"id":"7-ELEVEN_MA010120220803389669","brand":"7-ELEVEN","name":"세븐부평베스트점","lat":37.4935570276936,"lng":126.723305059397,"address":"인천광역시 부평구 부평동 199-20"},{"id":"CU_MA010120220803503394","brand":"CU","name":"씨유작전뉴서울1차점","lat":37.5293757642455,"lng":126.732834413911,"address":"인천광역시 계양구 작전동 102-3"},{"id":"CU_MA010120220803844894","brand":"CU","name":"씨유연수","lat":37.42183973548,"lng":126.649719677681,"address":"인천광역시 연수구 옥련동 477-3"},{"id":"EMART24_MA010120220803722236","brand":"EMART24","name":"이마트24간석래미안점","lat":37.4601042527658,"lng":126.708971940356,"address":"인천광역시 남동구 간석동 939-1"},{"id":"GS25_MA010120220803536020","brand":"GS25","name":"지에스25삼산행운","lat":37.5207293750789,"lng":126.742390000068,"address":"인천광역시 부평구 삼산동 388-20"},{"id":"CU_MA010120220803588117","brand":"CU","name":"씨유계산","lat":37.5461089086484,"lng":126.725679643432,"address":"인천광역시 계양구 계산동 925-2"},{"id":"7-ELEVEN_MA010120220803885207","brand":"7-ELEVEN","name":"세븐일레븐작전효서로점","lat":37.5282310575181,"lng":126.736651042039,"address":"인천광역시 계양구 작전동 589-17"},{"id":"CU_MA010120220803425636","brand":"CU","name":"씨유검단피오레점","lat":37.596371417328,"lng":126.664857943387,"address":"인천광역시 서구 마전동 1029-2"},{"id":"EMART24_MA010120220803530040","brand":"EMART24","name":"이마트24계산해피점","lat":37.5439264091839,"lng":126.724782395799,"address":"인천광역시 계양구 계산동 931-59"},{"id":"CU_MA010120220803846689","brand":"CU","name":"씨유동수부영로점","lat":37.4868673190718,"lng":126.717698874853,"address":"인천광역시 부평구 부평동 760-600"},{"id":"CU_MA010120220803876304","brand":"CU","name":"씨유동구만석부두점","lat":37.4874626663746,"lng":126.621315576437,"address":"인천광역시 동구 만석동 9-330"},{"id":"GS25_MA010120220803368823","brand":"GS25","name":"지에스25송도스마트밸리점","lat":37.3666451386433,"lng":126.647278391163,"address":"인천광역시 연수구 송도동 214"},{"id":"CU_MA010120220803823183","brand":"CU","name":"씨유대","lat":37.8252414108153,"lng":124.714373742554,"address":"인천광역시 옹진군 대청면 대청리 410"},{"id":"CU_MA010120220803392827","brand":"CU","name":"씨유가좌공원점","lat":37.4867365311665,"lng":126.683846442396,"address":"인천광역시 서구 가좌동 341"},{"id":"EMART24_MA010120220803416060","brand":"EMART24","name":"이마트24부평산곡화랑점","lat":37.4911679094108,"lng":126.704113578921,"address":"인천광역시 부평구 산곡동 370-16"},{"id":"7-ELEVEN_MA010120220803399669","brand":"7-ELEVEN","name":"세븐인천작전점","lat":37.5277990267784,"lng":126.724988729008,"address":"인천광역시 계양구 작전동 418-1"},{"id":"CU_MA010120220803869190","brand":"CU","name":"씨유","lat":37.4497329213017,"lng":126.661354349901,"address":"인천광역시 미추홀구 용현동 81-38"},{"id":"GS25_MA010120220803582449","brand":"GS25","name":"지에스25문학타운점","lat":37.439132419681,"lng":126.679074928041,"address":"인천광역시 미추홀구 문학동 350-5"},{"id":"7-ELEVEN_MA010120220803391693","brand":"7-ELEVEN","name":"세븐일레븐부개뉴서울점","lat":37.5063712532434,"lng":126.735970087819,"address":"인천광역시 부평구 부개동 477-3"},{"id":"EMART24_MA010120220803398276","brand":"EMART24","name":"이마트24부평시장길점","lat":37.4972096421652,"lng":126.728719666855,"address":"인천광역시 부평구 부평동 217-5"},{"id":"CU_MA010120220803532950","brand":"CU","name":"씨유청라","lat":37.5367333186687,"lng":126.639882485233,"address":"인천광역시 서구 청라동 139-1"},{"id":"CU_MA010120220803425813","brand":"CU","name":"씨유용현1동점","lat":37.4557840850784,"lng":126.656975701842,"address":"인천광역시 미추홀구 용현동 128-11"},{"id":"GS25_MA010120220803794937","brand":"GS25","name":"지에스25송림오거리","lat":37.4757700817991,"lng":126.64533040511,"address":"인천광역시 동구 송림동 60-5"},{"id":"CU_MA010120220803821998","brand":"CU","name":"씨유마전","lat":37.6057021409815,"lng":126.657364304241,"address":"인천광역시 서구 마전동 896-3"},{"id":"7-ELEVEN_MA010120220803379290","brand":"7-ELEVEN","name":"세븐인천임학역점","lat":37.5452456914576,"lng":126.738356459236,"address":"인천광역시 계양구 임학동 67-6"},{"id":"GS25_MA010120220803506806","brand":"GS25","name":"GS25S삼산체육관역점","lat":37.5070735606002,"lng":126.73176029535,"address":"인천광역시 부평구 삼산동 466"},{"id":"GS25_MA010120220803832172","brand":"GS25","name":"지에스25부평고점","lat":37.5014395789857,"lng":126.726646099309,"address":"인천광역시 부평구 부평동 375-106"},{"id":"CU_MA010120220803572156","brand":"CU","name":"씨유계양e편한세상점","lat":37.5283561376939,"lng":126.712994685126,"address":"인천광역시 계양구 효성동 677"},{"id":"GS25_MA010120220803519593","brand":"GS25","name":"지에스25구월신세계점","lat":37.457905377489,"lng":126.719989177901,"address":"인천광역시 남동구 구월동 342-213"},{"id":"CU_MA010120220803585323","brand":"CU","name":"씨유부평부흥로점","lat":37.4977042806132,"lng":126.72832207713,"address":"인천광역시 부평구 부평동 241-11"},{"id":"CU_MA010120220803512707","brand":"CU","name":"씨유연수영남점","lat":37.4190363958591,"lng":126.681137631175,"address":"인천광역시 연수구 연수동 574-6"},{"id":"7-ELEVEN_MA010120220803549154","brand":"7-ELEVEN","name":"세븐일레븐영종레전드호텔점","lat":37.4914098954684,"lng":126.496109447688,"address":"인천광역시 중구 운서동 3091-11"},{"id":"GS25_MA010120220803852052","brand":"GS25","name":"지에스25신","lat":37.4945303473849,"lng":126.488421644917,"address":"인천광역시 중구 운서동 2790-1"},{"id":"GS25_MA010120220803838891","brand":"GS25","name":"지에스25구월롯데","lat":37.45336279883,"lng":126.719361904665,"address":"인천광역시 남동구 구월동 1265-27"},{"id":"EMART24_MA010120220804318075","brand":"EMART24","name":"이마트24가좌","lat":37.4954500893569,"lng":126.687552738578,"address":"인천광역시 서구 가좌동 81-53"},{"id":"GS25_MA010120220804047795","brand":"GS25","name":"지에스25백령북포점","lat":37.9607689217724,"lng":124.664305536356,"address":"인천광역시 옹진군 백령면 북포리 503-1"},{"id":"GS25_MA010120220804378651","brand":"GS25","name":"지에스25주안","lat":37.4610473354206,"lng":126.679942050561,"address":"인천광역시 미추홀구 주안동 210-13"},{"id":"CU_MA010120220804151951","brand":"CU","name":"씨유병방서원점","lat":37.5466048473651,"lng":126.741837027206,"address":"인천광역시 계양구 병방동 432-3"},{"id":"CU_MA010120220804041391","brand":"CU","name":"씨유부평에이에프점","lat":37.4752595083128,"lng":126.709094066917,"address":"인천광역시 부평구 십정동 580-8"},{"id":"7-ELEVEN_MA010120220803918451","brand":"7-ELEVEN","name":"세븐일레븐인천계","lat":37.5468452998262,"lng":126.728528577413,"address":"인천광역시 계양구 계산동 906-13"},{"id":"GS25_MA010120220804100436","brand":"GS25","name":"GS25간석석산길","lat":37.4601462154143,"lng":126.704100219817,"address":"인천광역시 남동구 간석동 458-10"},{"id":"GS25_MA010120220803925365","brand":"GS25","name":"지에스25구월","lat":37.4493045771461,"lng":126.710369938061,"address":"인천광역시 남동구 구월동 279-6"},{"id":"7-ELEVEN_MA010120220804205445","brand":"7-ELEVEN","name":"세븐일레븐인천간석","lat":37.4644216666134,"lng":126.705971065858,"address":"인천광역시 남동구 간석동 319-1"},{"id":"EMART24_MA010120220804050931","brand":"EMART24","name":"이마트24인천월미도점","lat":37.4740601949226,"lng":126.598117551,"address":"인천광역시 중구 북성동1가 98-552"},{"id":"GS25_MA010120220803991083","brand":"GS25","name":"지에스25옥련서해점","lat":37.4231261296828,"lng":126.652074828372,"address":"인천광역시 연수구 옥련동 423-1"},{"id":"GS25_MA010120220804377551","brand":"GS25","name":"지에스25부평","lat":37.5194960509079,"lng":126.715370180858,"address":"인천광역시 부평구 청천동 419-2"},{"id":"CU_MA010120220804147626","brand":"CU","name":"씨유청라","lat":37.5302609758867,"lng":126.647787782034,"address":"인천광역시 서구 청라동 159-1"},{"id":"EMART24_MA010120220803925493","brand":"EMART24","name":"이마트24연수","lat":37.4163097873269,"lng":126.682425675074,"address":"인천광역시 연수구 연수동 578-1"},{"id":"GS25_MA010120220804048530","brand":"GS25","name":"GS25검단완정로점","lat":37.5951523878103,"lng":126.670298593302,"address":"인천광역시 서구 마전동 1017-1"},{"id":"GS25_MA010120220804335670","brand":"GS25","name":"지에스25부평피코그램점","lat":37.5222667436758,"lng":126.706219329778,"address":"인천광역시 부평구 청천동 391-19"},{"id":"GS25_MA010120220803914655","brand":"GS25","name":"지에스25가정타운점","lat":37.5278527021415,"lng":126.671907350879,"address":"인천광역시 서구 가정동 615-4"},{"id":"7-ELEVEN_MA010120220804258987","brand":"7-ELEVEN","name":"세븐일레븐인천영흥외리점","lat":37.2517748773953,"lng":126.475211580143,"address":"인천광역시 옹진군 영흥면 외리 68-226"},{"id":"7-ELEVEN_MA010120220804322881","brand":"7-ELEVEN","name":"세븐일레븐인천함박","lat":37.4250300141767,"lng":126.678502462727,"address":"인천광역시 연수구 연수동 480-8"},{"id":"CU_MA010120220804359465","brand":"CU","name":"씨유호텔휴","lat":37.4403859313512,"lng":126.461331817168,"address":"인천광역시 중구 운서동 2850"},{"id":"CU_MA010120220804286354","brand":"CU","name":"씨유송도밀레니엄점","lat":37.3957139483797,"lng":126.650959324391,"address":"인천광역시 연수구 송도동 3-1"},{"id":"GS25_MA010120220804086406","brand":"GS25","name":"GS25인천청운대점","lat":37.4717605302851,"lng":126.660644545094,"address":"인천광역시 미추홀구 도화동 36-1"},{"id":"7-ELEVEN_MA010120220804543520","brand":"7-ELEVEN","name":"세븐일레븐계양국제점","lat":37.5336335163595,"lng":126.735070713616,"address":"인천광역시 계양구 작전동 907-6"},{"id":"GS25_MA010120220804813465","brand":"GS25","name":"지에스25논현청조타운점","lat":37.4079169701945,"lng":126.723744571743,"address":"인천광역시 남동구 논현동 592-11"},{"id":"GS25_MA010120220804582529","brand":"GS25","name":"GS25논현논곡점","lat":37.4087048293487,"lng":126.710345585594,"address":"인천광역시 남동구 논현동 579-8"},{"id":"CU_MA010120220804731067","brand":"CU","name":"씨유심곡늘푸른점","lat":37.5411974365275,"lng":126.672256228404,"address":"인천광역시 서구 심곡동 344-1"},{"id":"CU_MA010120220804877218","brand":"CU","name":"씨유강화상도점","lat":37.7796614418817,"lng":126.461955422677,"address":"인천광역시 강화군 송해면 상도리 402-5"},{"id":"7-ELEVEN_MA010120220804659484","brand":"7-ELEVEN","name":"세븐일레븐인천석남새벽점","lat":37.5049509472271,"lng":126.672505225256,"address":"인천광역시 서구 석남동 539-9"},{"id":"CU_MA010120220804762399","brand":"CU","name":"씨유가좌공단","lat":37.4965380119454,"lng":126.654380694547,"address":"인천광역시 서구 가좌동 173-487"},{"id":"CU_MA010120220804772083","brand":"CU","name":"씨유영종구읍뱃터점","lat":37.4920757757841,"lng":126.581263045232,"address":"인천광역시 중구 중산동 1949-1"},{"id":"GS25_MA010120220804790880","brand":"GS25","name":"지에스25영종운중로점","lat":37.4934754158798,"lng":126.538556635035,"address":"인천광역시 중구 운남동 123-1"},{"id":"EMART24_MA010120220804875496","brand":"EMART24","name":"이마트24R강화","lat":37.7507225301873,"lng":126.492370460199,"address":"인천광역시 강화군 강화읍 옥림리 1054-4"},{"id":"7-ELEVEN_MA010120220804875103","brand":"7-ELEVEN","name":"세븐일레븐강화길상장흥점","lat":37.607698472234,"lng":126.517149522904,"address":"인천광역시 강화군 길상면 장흥리 277-36"},{"id":"7-ELEVEN_MA010120220804473489","brand":"7-ELEVEN","name":"세븐일레븐주안다운타운점","lat":37.4631162656466,"lng":126.682024353144,"address":"인천광역시 미추홀구 주안동 134-5"},{"id":"GS25_MA010120220804684428","brand":"GS25","name":"지에스25숭의로얄점","lat":37.4589337243463,"lng":126.646483693981,"address":"인천광역시 미추홀구 숭의동 296-34"},{"id":"7-ELEVEN_MA010120220804763388","brand":"7-ELEVEN","name":"세븐일레븐인천1호계산역점","lat":37.5431560961227,"lng":126.722872917565,"address":"인천광역시 계양구 계산동 1014"},{"id":"CU_MA010120220804539966","brand":"CU","name":"씨유용현골목길점","lat":37.4509165947952,"lng":126.63523121817,"address":"인천광역시 미추홀구 용현동 627-160"},{"id":"CU_MA010120220804809960","brand":"CU","name":"씨유부평동암","lat":37.4700796667789,"lng":126.702241057857,"address":"인천광역시 부평구 십정동 408-47"},{"id":"EMART24_MA010120220804871091","brand":"EMART24","name":"이마트24R논현푸른점","lat":37.4023056037514,"lng":126.720749613776,"address":"인천광역시 남동구 논현동 620-1"},{"id":"CU_MA010120220804818387","brand":"CU","name":"씨유작전공단점","lat":37.5258210707496,"lng":126.738763700059,"address":"인천광역시 계양구 작전동 680-6"},{"id":"CU_MA010120220804809162","brand":"CU","name":"씨유논현라피에스타","lat":37.3975369922999,"lng":126.727520828706,"address":"인천광역시 남동구 논현동 747-1"},{"id":"7-ELEVEN_MA010120220804793315","brand":"7-ELEVEN","name":"세븐검단원룸점","lat":37.6030752207447,"lng":126.661860853168,"address":"인천광역시 서구 마전동 989-11"},{"id":"CU_MA010120220804888351","brand":"CU","name":"씨유부개","lat":37.484491986512,"lng":126.738726765011,"address":"인천광역시 부평구 부개동 387-2"},{"id":"EMART24_MA010120220804661769","brand":"EMART24","name":"이마트24R경서","lat":37.5566542553752,"lng":126.654952039784,"address":"인천광역시 서구 경서동 748-5"},{"id":"CU_MA010120220804531010","brand":"CU","name":"씨유학익","lat":37.4402710992607,"lng":126.673736503036,"address":"인천광역시 미추홀구 학익동 45-46"},{"id":"CU_MA010120220804690612","brand":"CU","name":"씨유효성","lat":37.5244117745644,"lng":126.713824304007,"address":"인천광역시 계양구 효성동 675"},{"id":"CU_MA010120220804546909","brand":"CU","name":"씨유영흥장경리점","lat":37.2740004098089,"lng":126.452676593835,"address":"인천광역시 옹진군 영흥면 내리 1665-7"},{"id":"7-ELEVEN_MA010120220804482191","brand":"7-ELEVEN","name":"세븐인천청학사랑점","lat":37.4175940848508,"lng":126.674275466696,"address":"인천광역시 연수구 청학동 488-4"},{"id":"7-ELEVEN_MA010120220805164138","brand":"7-ELEVEN","name":"세븐일레븐인천","lat":37.4475563402653,"lng":126.695911368178,"address":"인천광역시 남동구 구월동 1359-18"},{"id":"7-ELEVEN_MA010120220805063240","brand":"7-ELEVEN","name":"세븐일레븐영종왕산마린점","lat":37.4573512271442,"lng":126.368406298878,"address":"인천광역시 중구 을왕동 810-92"},{"id":"EMART24_MA010120220805050206","brand":"EMART24","name":"이마트24신포문화의","lat":37.4724395645052,"lng":126.628773380933,"address":"인천광역시 중구 내동 206-2"},{"id":"GS25_MA010120220805051771","brand":"GS25","name":"지에스25용현","lat":37.4566060405521,"lng":126.651512902686,"address":"인천광역시 미추홀구 용현동 459-53"},{"id":"CU_MA010120220805022763","brand":"CU","name":"씨유송도트리플","lat":37.3824611767099,"lng":126.660663473373,"address":"인천광역시 연수구 송도동 169"},{"id":"EMART24_MA010120220805112595","brand":"EMART24","name":"이마트24인천정비단지점","lat":37.4413103368044,"lng":126.634746751158,"address":"인천광역시 미추홀구 학익동 587-277"},{"id":"GS25_MA010120220805250416","brand":"GS25","name":"GS25송도메디점","lat":37.3929477591032,"lng":126.64488532993,"address":"인천광역시 연수구 송도동 22-19"},{"id":"GS25_MA010120220804994514","brand":"GS25","name":"지에스25도원","lat":37.4690213932247,"lng":126.639325830189,"address":"인천광역시 중구 도원동 18-121"},{"id":"7-ELEVEN_MA010120220805127455","brand":"7-ELEVEN","name":"세븐계양구청점","lat":37.5387558226697,"lng":126.737145826328,"address":"인천광역시 계양구 용종동 210-4"},{"id":"7-ELEVEN_MA010120220805081911","brand":"7-ELEVEN","name":"세븐일레븐부평보영점","lat":37.4922633108853,"lng":126.721059587526,"address":"인천광역시 부평구 부평동 546-133"},{"id":"CU_MA010120220805114999","brand":"CU","name":"씨유마전베스트","lat":37.6107271802982,"lng":126.662766241131,"address":"인천광역시 서구 마전동 203-2"},{"id":"7-ELEVEN_MA010120220804901936","brand":"7-ELEVEN","name":"세븐일레븐연수","lat":37.4131687963064,"lng":126.677084704241,"address":"인천광역시 연수구 연수동 599-4"},{"id":"EMART24_MA010120220805188515","brand":"EMART24","name":"이마트24장경리해수욕장점","lat":37.2716695751755,"lng":126.449401289381,"address":"인천광역시 옹진군 영흥면 내리 1626"},{"id":"GS25_MA010120220804955644","brand":"GS25","name":"지에스25계양대로","lat":37.527000917127,"lng":126.722751684444,"address":"인천광역시 계양구 작전동 423-3"},{"id":"7-ELEVEN_MA010120220805240440","brand":"7-ELEVEN","name":"세븐일레븐편의점용일초교점","lat":37.4534179537029,"lng":126.664479662872,"address":"인천광역시 미추홀구 용현동 104-22"},{"id":"7-ELEVEN_MA010120220804926181","brand":"7-ELEVEN","name":"세븐구월인하로점","lat":37.4430648314216,"lng":126.708439030571,"address":"인천광역시 남동구 구월동 1492-5"},{"id":"GS25_MA010120220804962933","brand":"GS25","name":"지에스25소래포구역점","lat":37.4013934829075,"lng":126.735514378674,"address":"인천광역시 남동구 논현동 676-1"},{"id":"CU_MA010120220805181345","brand":"CU","name":"씨유계양미림점","lat":37.5289821119244,"lng":126.726183595563,"address":"인천광역시 계양구 작전동 869-17"},{"id":"CU_MA010120220805246648","brand":"CU","name":"씨유계양병방시장로점","lat":37.5488771804823,"lng":126.738570092346,"address":"인천광역시 계양구 병방동 366"},{"id":"EMART24_MA010120220805090843","brand":"EMART24","name":"이마트24용현대로점","lat":37.4512557943491,"lng":126.634201129143,"address":"인천광역시 미추홀구 용현동 627-448"},{"id":"CU_MA010120220804945531","brand":"CU","name":"씨유부평파크점","lat":37.492758057541,"lng":126.720718512548,"address":"인천광역시 부평구 부평동 341-5"},{"id":"GS25_MA010120220804921599","brand":"GS25","name":"GS25주안용남점","lat":37.4530714609678,"lng":126.66621039247,"address":"인천광역시 미추홀구 주안동 678-1"},{"id":"CU_MA010120220805171853","brand":"CU","name":"씨유송도캐슬파크A동점","lat":37.3853594993746,"lng":126.641341663074,"address":"인천광역시 연수구 송도동 8-37"},{"id":"CU_MA010120220805063372","brand":"CU","name":"씨유주안한나루로","lat":37.4539144825304,"lng":126.668014961268,"address":"인천광역시 미추홀구 주안동 685-1"},{"id":"EMART24_MA010120220805116834","brand":"EMART24","name":"이마트24청라","lat":37.5336567071541,"lng":126.647443707499,"address":"인천광역시 서구 청라동 157-10"},{"id":"7-ELEVEN_MA010120220805164198","brand":"7-ELEVEN","name":"세븐일레븐숭의수석점","lat":37.4637573531409,"lng":126.659866871981,"address":"인천광역시 미추홀구 숭의동 2-130"},{"id":"CU_MA010120220805126819","brand":"CU","name":"씨유서구서영","lat":37.5471686071757,"lng":126.677922053421,"address":"인천광역시 서구 심곡동 279-2"},{"id":"CU_MA010120220804929333","brand":"CU","name":"씨유삼산한길점","lat":37.5181647401198,"lng":126.743869334355,"address":"인천광역시 부평구 삼산동 121-48"},{"id":"GS25_MA010120220805090695","brand":"GS25","name":"지에스25영종선녀바위점","lat":37.4413671010442,"lng":126.378529834078,"address":"인천광역시 중구 을왕동 678-78"},{"id":"GS25_MA010120220805212329","brand":"GS25","name":"지에스25석남동진점","lat":37.5114526801153,"lng":126.681106840049,"address":"인천광역시 서구 석남동 111-13"},{"id":"CU_MA010120220804906338","brand":"CU","name":"CU송도앰코점","lat":37.3600496898285,"lng":126.656475013735,"address":"인천광역시 연수구 송도동 220"},{"id":"7-ELEVEN_MA010120220804926121","brand":"7-ELEVEN","name":"세븐인천논현보미점","lat":37.3995039825566,"lng":126.724825780655,"address":"인천광역시 남동구 논현동 649-4"},{"id":"CU_MA010120220804972853","brand":"CU","name":"CU강화후","lat":37.6381860483138,"lng":126.392075872743,"address":"인천광역시 강화군 화도면 내리 1820"},{"id":"GS25_MA010120220805242438","brand":"GS25","name":"지에스25송도라마다점","lat":37.4141976528601,"lng":126.655346785876,"address":"인천광역시 연수구 동춘동 812-1"},{"id":"7-ELEVEN_MA010120220805211008","brand":"7-ELEVEN","name":"세븐일레븐","lat":37.4481475031949,"lng":126.649122407213,"address":"인천광역시 미추홀구 용현동 665-12"},{"id":"GS25_MA010120220805156799","brand":"GS25","name":"지에스25강화소방서점","lat":37.7124014494739,"lng":126.459232630197,"address":"인천광역시 강화군 불은면 삼성리 9-2"},{"id":"EMART24_MA010120220805120131","brand":"EMART24","name":"이마트24구월","lat":37.4551486861974,"lng":126.720157685921,"address":"인천광역시 남동구 구월동 1264-72"},{"id":"CU_MA010120220804990839","brand":"CU","name":"씨유간석다솔점","lat":37.4642475690171,"lng":126.71210956804,"address":"인천광역시 남동구 간석동 169-17"},{"id":"GS25_MA010120220805231846","brand":"GS25","name":"지에스25루원","lat":37.5323369429687,"lng":126.664522428809,"address":"인천광역시 서구 가정동 604-1"},{"id":"7-ELEVEN_MA010120220804916372","brand":"7-ELEVEN","name":"세븐도화센터점","lat":37.4779774286316,"lng":126.657507396854,"address":"인천광역시 미추홀구 도화동 877"},{"id":"CU_MA010120220804971033","brand":"CU","name":"씨유석남","lat":37.5125168171686,"lng":126.668366348536,"address":"인천광역시 서구 석남동 168-101"},{"id":"GS25_MA010120220805101290","brand":"GS25","name":"GS25송림","lat":37.4734785702088,"lng":126.644346401624,"address":"인천광역시 동구 송림동 67-20"},{"id":"GS25_MA010120220804984889","brand":"GS25","name":"지에스25뉴가좌공단","lat":37.4989609469682,"lng":126.654120735021,"address":"인천광역시 서구 가좌동 173-91"},{"id":"GS25_MA010120220805187154","brand":"GS25","name":"지에스25청학으뜸점","lat":37.4176292015043,"lng":126.677223705541,"address":"인천광역시 연수구 청학동 496-4"},{"id":"CU_MA010120220805197063","brand":"CU","name":"씨유송도더샵","lat":37.3891062654154,"lng":126.632064191515,"address":"인천광역시 연수구 송도동 100"},{"id":"GS25_MA010120220805116414","brand":"GS25","name":"지에스25논현다연점","lat":37.4030218358006,"lng":126.738445183904,"address":"인천광역시 남동구 논현동 810"},{"id":"GS25_MA010120220804901377","brand":"GS25","name":"지에스25연수타운","lat":37.4125502132859,"lng":126.678228230911,"address":"인천광역시 연수구 연수동 602-3"},{"id":"7-ELEVEN_MA010120220804926182","brand":"7-ELEVEN","name":"세븐인천만수본점","lat":37.4541304887461,"lng":126.731791256267,"address":"인천광역시 남동구 만수동 952-1"},{"id":"CU_MA010120220804932433","brand":"CU","name":"씨유강화동검도점","lat":37.6071465700033,"lng":126.516586837618,"address":"인천광역시 강화군 길상면 장흥리 277-28"},{"id":"CU_MA010120220805080180","brand":"CU","name":"씨유숭의솔루나","lat":37.4620037915884,"lng":126.639732545615,"address":"인천광역시 미추홀구 숭의동 359-1"},{"id":"7-ELEVEN_MA010120220804941688","brand":"7-ELEVEN","name":"세븐일레븐영종센텀스카이점","lat":37.4930628187622,"lng":126.497070814065,"address":"인천광역시 중구 운서동 3087-2"},{"id":"CU_MA010120220804917632","brand":"CU","name":"씨유논현","lat":37.3924365095909,"lng":126.727211801818,"address":"인천광역시 남동구 논현동 772-1"},{"id":"EMART24_MA010120220805131285","brand":"EMART24","name":"이마트24공항업무단지점","lat":37.4391821695459,"lng":126.460142680593,"address":"인천광역시 중구 운서동 2850-3"},{"id":"GS25_MA010120220805129552","brand":"GS25","name":"GS25구월한주점","lat":37.4520275126218,"lng":126.696752197387,"address":"인천광역시 남동구 구월동 1106"},{"id":"CU_MA010120220805030183","brand":"CU","name":"씨유석남산업","lat":37.5021376248991,"lng":126.652805520051,"address":"인천광역시 서구 석남동 223-255"},{"id":"CU_MA010120220804904974","brand":"CU","name":"씨유주안8동점","lat":37.4466141160161,"lng":126.683642428529,"address":"인천광역시 미추홀구 주안동 1214-4"},{"id":"EMART24_MA010120220805151004","brand":"EMART24","name":"이마트24청라","lat":37.5350846970702,"lng":126.637005292159,"address":"인천광역시 서구 청라동 150-1"},{"id":"CU_MA010120220804999164","brand":"CU","name":"씨유영종스텔라점","lat":37.4877477367766,"lng":126.560527494324,"address":"인천광역시 중구 중산동 1873-8"},{"id":"7-ELEVEN_MA010120220805456086","brand":"7-ELEVEN","name":"세븐서창장골점","lat":37.4321163722936,"lng":126.751303606079,"address":"인천광역시 남동구 서창동 576-2"},{"id":"EMART24_MA010120220805323704","brand":"EMART24","name":"이마트24연수청학점","lat":37.4244548344843,"lng":126.666032436403,"address":"인천광역시 연수구 청학동 569-11"},{"id":"GS25_MA010120220805454487","brand":"GS25","name":"지에스25숭의","lat":37.4613071668393,"lng":126.64175913813,"address":"인천광역시 미추홀구 숭의동 342-30"},{"id":"GS25_MA010120220805519433","brand":"GS25","name":"지에스25만수짱구점","lat":37.4445641464133,"lng":126.740944977629,"address":"인천광역시 남동구 만수동 1104-10"},{"id":"CU_MA010120220805524574","brand":"CU","name":"씨유인천중구경동점","lat":37.4725401983297,"lng":126.635047026361,"address":"인천광역시 중구 경동 75-2"},{"id":"GS25_MA010120220805292742","brand":"GS25","name":"GS25주안진흥점","lat":37.4481848255123,"lng":126.681386893081,"address":"인천광역시 미추홀구 주안동 1464-48"},{"id":"CU_MA010120220805302843","brand":"CU","name":"씨유작전까치점","lat":37.52800832667,"lng":126.737783140878,"address":"인천광역시 계양구 작전동 555-1"},{"id":"CU_MA010120220805469967","brand":"CU","name":"씨유간석우수점","lat":37.4651521674073,"lng":126.713586880723,"address":"인천광역시 남동구 간석동 94-15"},{"id":"GS25_MA010120220805617359","brand":"GS25","name":"지에스25가좌베스트점","lat":37.4943609695948,"lng":126.671352817975,"address":"인천광역시 서구 가좌동 146-21"},{"id":"EMART24_MA010120220805480998","brand":"EMART24","name":"이마트24인천석남역점","lat":37.5060698358243,"lng":126.673099758509,"address":"인천광역시 서구 석남동 544"},{"id":"GS25_MA010120220805422546","brand":"GS25","name":"지에스25갈","lat":37.519702149513,"lng":126.730244547044,"address":"인천광역시 부평구 갈산동 21-7"},{"id":"CU_MA010120220805370401","brand":"CU","name":"씨유효성일등점","lat":37.5249964751659,"lng":126.717170629131,"address":"인천광역시 계양구 효성동 207-1"},{"id":"7-ELEVEN_MA010120220805493265","brand":"7-ELEVEN","name":"세븐일레븐도화나산점","lat":37.4648766277735,"lng":126.666903955736,"address":"인천광역시 미추홀구 도화동 601-2"},{"id":"GS25_MA010120220805392921","brand":"GS25","name":"지에스25계양대원점","lat":37.5795127376229,"lng":126.73133081765,"address":"인천광역시 계양구 장기동 131-10"},{"id":"GS25_MA010120220805370792","brand":"GS25","name":"GS25주안에쉐르점","lat":37.4448547718932,"lng":126.682757088104,"address":"인천광역시 미추홀구 주안동 1216-17"},{"id":"EMART24_MA010120220805380905","brand":"EMART24","name":"이마트24석모도점","lat":37.6858822845616,"lng":126.317769915578,"address":"인천광역시 강화군 삼산면 매음리 638-16"},{"id":"GS25_MA010120220805269174","brand":"GS25","name":"지에스25인천용마루점","lat":37.4582645082676,"lng":126.642666559642,"address":"인천광역시 미추홀구 용현동 690"},{"id":"EMART24_MA010120220805442815","brand":"EMART24","name":"이마트24부평역링컨점","lat":37.490559167415,"lng":126.728257497617,"address":"인천광역시 부평구 부평동 179-37"},{"id":"CU_MA010120220805468232","brand":"CU","name":"씨유부평","lat":37.4905423775815,"lng":126.732746637284,"address":"인천광역시 부평구 부평동 491-1"},{"id":"CU_MA010120220805329500","brand":"CU","name":"씨유송도랜드마크시티","lat":37.4151384078196,"lng":126.618415424067,"address":"인천광역시 연수구 송도동 311"},{"id":"CU_MA010120220805422940","brand":"CU","name":"씨유불로백두점","lat":37.6143752842927,"lng":126.685277605234,"address":"인천광역시 서구 불로동 776-1"},{"id":"EMART24_MA010120220805387933","brand":"EMART24","name":"이마트24구월","lat":37.4461863892414,"lng":126.702833012486,"address":"인천광역시 남동구 구월동 1458-1"},{"id":"CU_MA010120220805519126","brand":"CU","name":"씨유숭의","lat":37.4603999000571,"lng":126.642667701445,"address":"인천광역시 미추홀구 숭의동 341-26"},{"id":"7-ELEVEN_MA010120220805469021","brand":"7-ELEVEN","name":"세븐일레븐인천석남공단점","lat":37.503018474207,"lng":126.664540561968,"address":"인천광역시 서구 석남동 223-532"},{"id":"CU_MA010120220805371790","brand":"CU","name":"씨유강화선두리점","lat":37.6227329808081,"lng":126.480419429409,"address":"인천광역시 강화군 길상면 선두리 627-8"},{"id":"CU_MA010120220805417392","brand":"CU","name":"씨유만수정광","lat":37.4628614014646,"lng":126.739909776932,"address":"인천광역시 남동구 만수동 3-9"},{"id":"CU_MA010120220805283050","brand":"CU","name":"씨유동춘","lat":37.406343178732,"lng":126.668789717223,"address":"인천광역시 연수구 동춘동 941"},{"id":"7-ELEVEN_MA010120220805383042","brand":"7-ELEVEN","name":"세븐일레븐만수영보점","lat":37.4568352140808,"lng":126.732538860006,"address":"인천광역시 남동구 만수동 32"},{"id":"CU_MA010120220805303601","brand":"CU","name":"씨유갈산지웰점","lat":37.5169358710886,"lng":126.726238928092,"address":"인천광역시 부평구 갈산동 171"},{"id":"GS25_MA010120220805453615","brand":"GS25","name":"지에스25주안동경","lat":37.4634741314696,"lng":126.677761451242,"address":"인천광역시 미추홀구 주안동 272-1"},{"id":"CU_MA010120220805383527","brand":"CU","name":"씨유가좌현우점","lat":37.4960201152133,"lng":126.671820496578,"address":"인천광역시 서구 가좌동 140-31"},{"id":"EMART24_MA010120220805363703","brand":"EMART24","name":"이마트24부평","lat":37.4908306460165,"lng":126.721030992618,"address":"인천광역시 부평구 부평동 534-6"},{"id":"CU_MA010120220805313768","brand":"CU","name":"씨유주안","lat":37.4635201842199,"lng":126.684814587362,"address":"인천광역시 미추홀구 주안동 113-1"},{"id":"CU_MA010120220805391100","brand":"CU","name":"CU비류원룸점","lat":37.4253035564525,"lng":126.673112304535,"address":"인천광역시 연수구 연수동 475-12"},{"id":"7-ELEVEN_MA010120220805648658","brand":"7-ELEVEN","name":"세븐일레븐학익대로점","lat":37.4386334896459,"lng":126.674545889421,"address":"인천광역시 미추홀구 학익동 671-4"},{"id":"7-ELEVEN_MA010120220805999775","brand":"7-ELEVEN","name":"세븐인천계산중앙점","lat":37.5447160716343,"lng":126.727280258081,"address":"인천광역시 계양구 계산동 927-15"},{"id":"7-ELEVEN_MA010120220805861170","brand":"7-ELEVEN","name":"세븐일레븐영종갤러리84점","lat":37.5295528578494,"lng":126.516420568517,"address":"인천광역시 중구 운북동 1266-18"},{"id":"7-ELEVEN_MA010120220805955657","brand":"7-ELEVEN","name":"세븐일레븐강화","lat":37.7348879522903,"lng":126.482994608489,"address":"인천광역시 강화군 강화읍 남산리 345-1"},{"id":"GS25_MA010120220805688167","brand":"GS25","name":"지에스25검단솔보","lat":37.593999863213,"lng":126.715607520008,"address":"인천광역시 서구 원당동 1033-10"},{"id":"7-ELEVEN_MA010120220805852824","brand":"7-ELEVEN","name":"세븐일레븐인천문학공원점","lat":37.4375862487337,"lng":126.680392274571,"address":"인천광역시 미추홀구 문학동 361-3"},{"id":"7-ELEVEN_MA010120220805641900","brand":"7-ELEVEN","name":"세븐일레븐만수","lat":37.4437004429447,"lng":126.741524278533,"address":"인천광역시 남동구 만수동 1036-2"},