[{"id":"CU_MA010120220800524824","brand":"CU","name":"CU군산조촌","lat":35.9713393580422,"lng":126.734878559083,"address":"전북특별자치도 군산시 조촌동 848"},{"id":"GS25_MA010120220800094467","brand":"GS25","name":"지에스25익산","lat":35.945284161151,"lng":126.96595213874,"address":"전북특별자치도 익산시 마동 153-48"},{"id":"CU_MA010120220800235312","brand":"CU","name":"씨유켄싱턴리조트","lat":35.4024361294197,"lng":127.385186145211,"address":"전북특별자치도 남원시 어현동 37-122"},{"id":"7-ELEVEN_MA010120220800221511","brand":"7-ELEVEN","name":"세븐일레븐전주그랑블점","lat":35.826815060017,"lng":127.150818203677,"address":"전북특별자치도 전주시 완산구 중노송동 442"},{"id":"7-ELEVEN_MA010120220800148114","brand":"7-ELEVEN","name":"세븐일레븐전주만성","lat":35.8491548354747,"lng":127.077411778012,"address":"전북특별자치도 전주시 덕진구 만성동 1351-1"},{"id":"EMART24_MA010120220800376086","brand":"EMART24","name":"이마트24전주우아점","lat":35.8509867555282,"lng":127.157849219942,"address":"전북특별자치도 전주시 덕진구 우아동3가 744-47"},{"id":"CU_MA010120220800104754","brand":"CU","name":"씨유전주","lat":35.7999574120698,"lng":127.127523941773,"address":"전북특별자치도 전주시 완산구 삼천동1가 585-10"},{"id":"CU_MA010120220800095718","brand":"CU","name":"씨유원보전","lat":35.9749765257825,"lng":126.955328714668,"address":"전북특별자치도 익산시 신용동 333-14"},{"id":"CU_MA010120220800477431","brand":"CU","name":"씨유남원인월점","lat":35.4614712709551,"lng":127.603305493003,"address":"전북특별자치도 남원시 인월면 인월리 233-3"},{"id":"GS25_MA010120220800043656","brand":"GS25","name":"GS25전주","lat":35.8274853952332,"lng":127.162052348287,"address":"전북특별자치도 전주시 덕진구 인후동1가 899-15"},{"id":"GS25_MA010120220800052492","brand":"GS25","name":"지에스25삼천호반점","lat":35.7978999490584,"lng":127.112021707122,"address":"전북특별자치도 전주시 완산구 삼천동1가 286-10"},{"id":"CU_MA010120220800370218","brand":"CU","name":"씨유어양","lat":35.9621049012771,"lng":126.982739661315,"address":"전북특별자치도 익산시 어양동 690"},{"id":"7-ELEVEN_MA010120220800463946","brand":"7-ELEVEN","name":"세븐일레븐익산캠퍼스점","lat":35.9424433834543,"lng":126.959913181722,"address":"전북특별자치도 익산시 마동 194-5"},{"id":"7-ELEVEN_MA010120220800151720","brand":"7-ELEVEN","name":"세븐일레븐익산","lat":35.9571131981681,"lng":126.99574338277,"address":"전북특별자치도 익산시 부송동 242-85"},{"id":"GS25_MA010120220800844503","brand":"GS25","name":"지에스25호원대점","lat":35.9622124773742,"lng":126.86680591326,"address":"전북특별자치도 군산시 임피면 월하리 791-16"},{"id":"GS25_MA010120220800890539","brand":"GS25","name":"지에스25정읍시기점","lat":35.554599530201,"lng":126.862454200779,"address":"전북특별자치도 정읍시 시기동 100"},{"id":"CU_MA010120220800647229","brand":"CU","name":"씨유익산동부","lat":35.9485019364247,"lng":126.967181053079,"address":"전북특별자치도 익산시 영등동 533-2"},{"id":"GS25_MA010120220800920342","brand":"GS25","name":"지에스25전주","lat":35.8157960229634,"lng":127.124240752769,"address":"전북특별자치도 전주시 완산구 중화산동2가 657-4"},{"id":"GS25_MA010120220800678961","brand":"GS25","name":"지에스25덕진호반점","lat":35.8493287575146,"lng":127.118370633916,"address":"전북특별자치도 전주시 덕진구 덕진동2가 167-29"},{"id":"GS25_MA010120220800895941","brand":"GS25","name":"지에스25전주","lat":35.8159637076294,"lng":127.109347147257,"address":"전북특별자치도 전주시 완산구 효자동3가 1536-8"},{"id":"7-ELEVEN_MA010120220800690291","brand":"7-ELEVEN","name":"세븐일레븐전주양현중점","lat":35.8484624265791,"lng":127.074953610126,"address":"전북특별자치도 전주시 덕진구 만성동 1356-28"},{"id":"GS25_MA010120220801148074","brand":"GS25","name":"지에스25나운우진점","lat":35.9716966583174,"lng":126.702747420099,"address":"전북특별자치도 군산시 나운동 588"},{"id":"7-ELEVEN_MA010120220801533748","brand":"7-ELEVEN","name":"세븐군산수송센터점","lat":35.9667281405707,"lng":126.716524068014,"address":"전북특별자치도 군산시 수송동 831-1"},{"id":"CU_MA010120220801232686","brand":"CU","name":"씨유남원여고","lat":35.4094567714107,"lng":127.370984436299,"address":"전북특별자치도 남원시 왕정동 92-1"},{"id":"CU_MA010120220801145885","brand":"CU","name":"씨유정읍수성자매점","lat":35.583080040343,"lng":126.862019356251,"address":"전북특별자치도 정읍시 수성동 1018-6"},{"id":"CU_MA010120220802280319","brand":"CU","name":"CU고창","lat":35.519124492939,"lng":126.698968176471,"address":"전북특별자치도 고창군 흥덕면 흥덕리 382-4"},{"id":"EMART24_MA010120220802477512","brand":"EMART24","name":"이마트24남원중앙하이츠점","lat":35.4173428408948,"lng":127.382680637792,"address":"전북특별자치도 남원시 향교동 285"},{"id":"7-ELEVEN_MA010120220801940431","brand":"7-ELEVEN","name":"세븐일레븐고창고인돌점","lat":35.4947053028694,"lng":126.701439833223,"address":"전북특별자치도 고창군 신림면 무림리 550-14"},{"id":"7-ELEVEN_MA010120220802502506","brand":"7-ELEVEN","name":"세븐일레븐전주","lat":35.8131475059869,"lng":127.103998943991,"address":"전북특별자치도 전주시 완산구 효자동2가 1260-1"},{"id":"CU_MA010120220802882877","brand":"CU","name":"씨유익산우남샘물","lat":35.9603275516315,"lng":126.97250823346,"address":"전북특별자치도 익산시 영등동 800"},{"id":"7-ELEVEN_MA010120220802837418","brand":"7-ELEVEN","name":"세븐일레븐고창은하다리점","lat":35.4339328500184,"lng":126.710022993487,"address":"전북특별자치도 고창군 고창읍 교촌리 39-2"},{"id":"CU_MA010120220802968430","brand":"CU","name":"씨유전주우리점","lat":35.850493575353,"lng":127.106383473062,"address":"전북특별자치도 전주시 덕진구 팔복동2가 35-15"},{"id":"CU_MA010120220802742219","brand":"CU","name":"씨유원광대생활관점","lat":35.9717157664206,"lng":126.960219910347,"address":"전북특별자치도 익산시 신동 272"},{"id":"GS25_MA010120220802983567","brand":"GS25","name":"GS25인화행복주택점","lat":35.9271113527649,"lng":126.954635403614,"address":"전북특별자치도 익산시 인화동2가 174-8"},{"id":"GS25_MA010120220802888265","brand":"GS25","name":"지에스25인후만남점","lat":35.8390475002038,"lng":127.15602140223,"address":"전북특별자치도 전주시 덕진구 인후동1가 756-21"},{"id":"GS25_MA010120220802686645","brand":"GS25","name":"지에스25송천더샵","lat":35.8766086469884,"lng":127.136372754021,"address":"전북특별자치도 전주시 덕진구 송천동2가 1304"},{"id":"CU_MA010120220802977091","brand":"CU","name":"씨유고창구시포점","lat":35.4454386319405,"lng":126.436156735241,"address":"전북특별자치도 고창군 상하면 자룡리 523-3"},{"id":"CU_MA010120220803001983","brand":"CU","name":"씨유에코","lat":35.8720710002001,"lng":127.13220150226,"address":"전북특별자치도 전주시 덕진구 송천동2가 1309"},{"id":"GS25_MA010120220802910762","brand":"GS25","name":"지에스25송천","lat":35.8666646219677,"lng":127.113458152106,"address":"전북특별자치도 전주시 덕진구 송천동2가 561-21"},{"id":"EMART24_MA010120220802743906","brand":"EMART24","name":"이마트24R군산조은점","lat":35.9496647799069,"lng":126.715277140005,"address":"전북특별자치도 군산시 옥산면 당북리 957-6"},{"id":"7-ELEVEN_MA010120220802899452","brand":"7-ELEVEN","name":"세븐일레븐익산원광대점","lat":35.9611249203654,"lng":126.956500494211,"address":"전북특별자치도 익산시 신동 798-1"},{"id":"GS25_MA010120220802920170","brand":"GS25","name":"지에스25남원산내점","lat":35.4184784548355,"lng":127.622979811512,"address":"전북특별자치도 남원시 산내면 대정리 746-3"},{"id":"CU_MA010120220802781702","brand":"CU","name":"씨유전주효자일등점","lat":35.8044769844139,"lng":127.114343251821,"address":"전북특별자치도 전주시 완산구 효자동1가 651-2"},{"id":"CU_MA010120220803099825","brand":"CU","name":"씨유김제","lat":35.8171848894593,"lng":126.99322794052,"address":"전북특별자치도 김제시 용지면 부교리 57-22"},{"id":"CU_MA010120220803355288","brand":"CU","name":"씨유무주설천점","lat":36.009296385312,"lng":127.787463770807,"address":"전북특별자치도 무주군 설천면 소천리 904-87"},{"id":"GS25_MA010120220803298682","brand":"GS25","name":"지에스25송천자이언트점","lat":35.8663540081161,"lng":127.117809115659,"address":"전북특별자치도 전주시 덕진구 송천동1가 805"},{"id":"CU_MA010120220803347779","brand":"CU","name":"씨유송천비사벌점","lat":35.8643205554064,"lng":127.123419608822,"address":"전북특별자치도 전주시 덕진구 송천동2가 193-42"},{"id":"7-ELEVEN_MA010120220803082567","brand":"7-ELEVEN","name":"세븐일레븐전북혁신하늘채점","lat":35.8393700952597,"lng":127.055918245224,"address":"전북특별자치도 완주군 이서면 갈산리 661-1"},{"id":"CU_MA010120220803354202","brand":"CU","name":"씨유정읍","lat":35.5606235838535,"lng":126.865444088169,"address":"전북특별자치도 정읍시 상동 328-8"},{"id":"CU_MA010120220803079914","brand":"CU","name":"씨유남원동충현대점","lat":35.4129869322735,"lng":127.386315311255,"address":"전북특별자치도 남원시 향교동 204-7"},{"id":"GS25_MA010120220803140344","brand":"GS25","name":"GS25전주평화로점","lat":35.7830436071312,"lng":127.133137886435,"address":"전북특별자치도 전주시 완산구 평화동2가 909-3"},{"id":"7-ELEVEN_MA010120220803317636","brand":"7-ELEVEN","name":"세븐일레븐전주아중솔래점","lat":35.8289145268916,"lng":127.171340525355,"address":"전북특별자치도 전주시 덕진구 우아동2가 912-5"},{"id":"CU_MA010120220803032816","brand":"CU","name":"씨유정읍연지","lat":35.5712288323399,"lng":126.84774282676,"address":"전북특별자치도 정읍시 연지동 44-11"},{"id":"7-ELEVEN_MA010120220803283655","brand":"7-ELEVEN","name":"세븐일레븐부안온리뷰점","lat":35.724975382122,"lng":126.732027829561,"address":"전북특별자치도 부안군 부안읍 서외리 34-1"},{"id":"CU_MA010120220803295270","brand":"CU","name":"씨유고창상하점","lat":35.4427730907443,"lng":126.489339034796,"address":"전북특별자치도 고창군 상하면 하장리 971-11"},{"id":"GS25_MA010120220803173084","brand":"GS25","name":"지에스25무주덕유산점","lat":35.8992893230685,"lng":127.777145883284,"address":"전북특별자치도 무주군 설천면 삼공리 418-20"},{"id":"GS25_MA010120220803153543","brand":"GS25","name":"GS25군장생활관점","lat":35.9766297919408,"lng":126.730913670838,"address":"전북특별자치도 군산시 경암동 664-5"},{"id":"CU_MA010120220803341389","brand":"CU","name":"씨유부안행안점","lat":35.7175167285882,"lng":126.717950937374,"address":"전북특별자치도 부안군 행안면 진동리 189-3"},{"id":"7-ELEVEN_MA010120220803011510","brand":"7-ELEVEN","name":"세븐일레븐전주대","lat":35.8170259163932,"lng":127.08905460638,"address":"전북특별자치도 전주시 완산구 효자동3가 1281-1"},{"id":"GS25_MA010120220803285246","brand":"GS25","name":"지에스25오수IC점","lat":35.5598046908952,"lng":127.320243555693,"address":"전북특별자치도 임실군 오수면 대명리 304-2"},{"id":"GS25_MA010120220803011265","brand":"GS25","name":"지에스25군산","lat":35.9631482461508,"lng":126.69019715083,"address":"전북특별자치도 군산시 나운동 851-1"},{"id":"CU_MA010120220803160953","brand":"CU","name":"씨유김제봉남점","lat":35.7537842252789,"lng":126.962639503298,"address":"전북특별자치도 김제시 봉남면 대송리 563-3"},{"id":"GS25_MA010120220803323332","brand":"GS25","name":"GS25정읍아산","lat":35.5866864261682,"lng":126.821718315984,"address":"전북특별자치도 정읍시 용계동 389"},{"id":"CU_MA010120220803132535","brand":"CU","name":"씨유김제뉴대방점","lat":35.8004694628482,"lng":126.899192701585,"address":"전북특별자치도 김제시 신풍동 612-9"},{"id":"CU_MA010120220803277576","brand":"CU","name":"씨유전주노송","lat":35.8283987672628,"lng":127.14554224042,"address":"전북특별자치도 전주시 완산구 서노송동 673-20"},{"id":"CU_MA010120220803315271","brand":"CU","name":"씨유부안줄포","lat":35.5982635706621,"lng":126.673313256836,"address":"전북특별자치도 부안군 줄포면 줄포리 916-43"},{"id":"7-ELEVEN_MA010120220803095953","brand":"7-ELEVEN","name":"세븐군산대원룸점","lat":35.9440626253755,"lng":126.687711474878,"address":"전북특별자치도 군산시 미룡동 888-7"},{"id":"7-ELEVEN_MA010120220803124258","brand":"7-ELEVEN","name":"세븐일레븐전북혁신지구점","lat":35.8381077250897,"lng":127.057212357418,"address":"전북특별자치도 완주군 이서면 갈산리 664-1"},{"id":"GS25_MA010120220803323191","brand":"GS25","name":"GS25함열","lat":36.0776657800461,"lng":126.964740572019,"address":"전북특별자치도 익산시 함열읍 와리 205-7"},{"id":"EMART24_MA010120220803260984","brand":"EMART24","name":"이마트24정읍수성타운점","lat":35.5682196314465,"lng":126.855999789769,"address":"전북특별자치도 정읍시 수성동 624-6"},{"id":"7-ELEVEN_MA010120220803325190","brand":"7-ELEVEN","name":"세븐일레븐정읍시기점","lat":35.5642948371335,"lng":126.860132245642,"address":"전북특별자치도 정읍시 시기동 170-2"},{"id":"GS25_MA010120220803823674","brand":"GS25","name":"지에스25송학현대점","lat":35.9408296028516,"lng":126.937515930759,"address":"전북특별자치도 익산시 송학동 215"},{"id":"GS25_MA010120220803397985","brand":"GS25","name":"지에스25전주화산점","lat":35.8116424841028,"lng":127.131514841315,"address":"전북특별자치도 전주시 완산구 중화산동1가 329"},{"id":"CU_MA010120220803417151","brand":"CU","name":"씨유전주우아대로점","lat":35.8354993494085,"lng":127.167337004023,"address":"전북특별자치도 전주시 덕진구 우아동2가 866-1"},{"id":"7-ELEVEN_MA010120220803862817","brand":"7-ELEVEN","name":"세븐일레븐전주","lat":35.8147316417306,"lng":127.125102173018,"address":"전북특별자치도 전주시 완산구 중화산동2가 151-23"},{"id":"GS25_MA010120220803436555","brand":"GS25","name":"지에스25전주대뉴타운점","lat":35.8171240223522,"lng":127.090437896429,"address":"전북특별자치도 전주시 완산구 효자동3가 1183-10"},{"id":"GS25_MA010120220803387740","brand":"GS25","name":"지에스25전북","lat":35.8426421344794,"lng":127.126529608013,"address":"전북특별자치도 전주시 덕진구 덕진동1가 1266-1"},{"id":"CU_MA010120220803427189","brand":"CU","name":"씨유익산왕궁","lat":35.9901165563199,"lng":127.080609973295,"address":"전북특별자치도 익산시 왕궁면 도순리 326-1"},{"id":"GS25_MA010120220803820209","brand":"GS25","name":"지에스25정읍","lat":35.585275271508,"lng":126.85862832136,"address":"전북특별자치도 정읍시 수성동 1010-14"},{"id":"EMART24_MA010120220803858380","brand":"EMART24","name":"이마트24남원도통점","lat":35.4216074762196,"lng":127.393458566967,"address":"전북특별자치도 남원시 도통동 498-7"},{"id":"EMART24_MA010120220803413929","brand":"EMART24","name":"이마트24김제검산","lat":35.8038399510101,"lng":126.898911853104,"address":"전북특별자치도 김제시 검산동 1032-1"},{"id":"7-ELEVEN_MA010120220803674120","brand":"7-ELEVEN","name":"세븐일레븐정읍태인점","lat":35.6510812009986,"lng":126.935721599245,"address":"전북특별자치도 정읍시 태인면 태창리 223-7"},{"id":"GS25_MA010120220803408812","brand":"GS25","name":"GS25군산의료원점","lat":35.9556257202371,"lng":126.713072065364,"address":"전북특별자치도 군산시 지곡동 556-2"},{"id":"CU_MA010120220803857137","brand":"CU","name":"씨유고창공음점","lat":35.3772821215758,"lng":126.512928392127,"address":"전북특별자치도 고창군 공음면 칠암리 538"},{"id":"CU_MA010120220803673004","brand":"CU","name":"씨유만성","lat":35.8348558342102,"lng":127.071011703507,"address":"전북특별자치도 전주시 덕진구 만성동 1167-4"},{"id":"CU_MA010120220803450393","brand":"CU","name":"비지에프휴먼넷CUE이서휴게소","lat":35.8018518404839,"lng":127.025788621573,"address":"전북특별자치도 완주군 이서면 은교리 183-34"},{"id":"CU_MA010120220803539389","brand":"CU","name":"CU정읍서영점","lat":35.5801135446641,"lng":126.853341677349,"address":"전북특별자치도 정읍시 수성동 944-9"},{"id":"7-ELEVEN_MA010120220803502894","brand":"7-ELEVEN","name":"세븐일레븐부안석정점","lat":35.7300519968511,"lng":126.737228008862,"address":"전북특별자치도 부안군 부안읍 선은리 260-13"},{"id":"GS25_MA010120220803401075","brand":"GS25","name":"GS25전북순창점","lat":35.3770393557673,"lng":127.138850554394,"address":"전북특별자치도 순창군 순창읍 순화리 95-5"},{"id":"CU_MA010120220803568736","brand":"CU","name":"CU김제","lat":35.8043273825708,"lng":126.899807392587,"address":"전북특별자치도 김제시 검산동 912-16"},{"id":"CU_MA010120220803789625","brand":"CU","name":"씨유전주효자스마일점","lat":35.8119442214512,"lng":127.098774825246,"address":"전북특별자치도 전주시 완산구 효자동3가 1738-11"},{"id":"CU_MA010120220803387823","brand":"CU","name":"씨유김제검산","lat":35.8053335869734,"lng":126.907030795321,"address":"전북특별자치도 김제시 검산동 895-25"},{"id":"EMART24_MA010120220803581833","brand":"EMART24","name":"이마트24R전주효자플렉스점","lat":35.8229748015344,"lng":127.099806584782,"address":"전북특별자치도 전주시 완산구 효자동3가 1652-2"},{"id":"CU_MA010120220803436973","brand":"CU","name":"씨유효자웨스트점","lat":35.8194124985707,"lng":127.102568565772,"address":"전북특별자치도 전주시 완산구 효자동3가 1693-5"},{"id":"7-ELEVEN_MA010120220804380334","brand":"7-ELEVEN","name":"세븐일레븐전주서원","lat":35.8146569546877,"lng":127.135790939358,"address":"전북특별자치도 전주시 완산구 중화산동1가 189-4"},{"id":"EMART24_MA010120220804410857","brand":"EMART24","name":"이마트24전주산정타운점","lat":35.8371543520304,"lng":127.169698008968,"address":"전북특별자치도 전주시 덕진구 산정동 871-4"},{"id":"7-ELEVEN_MA010120220804382982","brand":"7-ELEVEN","name":"세븐일레븐군산조촌로점","lat":35.9699212269663,"lng":126.741679444445,"address":"전북특별자치도 군산시 조촌동 923-1"},{"id":"GS25_MA010120220803987048","brand":"GS25","name":"지에스25하가실크","lat":35.844514293451,"lng":127.110758908816,"address":"전북특별자치도 전주시 덕진구 덕진동2가 671-1"},{"id":"CU_MA010120220804334244","brand":"CU","name":"씨유전주기전대학교점","lat":35.8178295234023,"lng":127.13567462074,"address":"전북특별자치도 전주시 완산구 중화산동1가 177-1"},{"id":"EMART24_MA010120220804435292","brand":"EMART24","name":"이마트24전주여의점","lat":35.8692797689723,"lng":127.077542074031,"address":"전북특별자치도 전주시 덕진구 여의동2가 708-4"},{"id":"CU_MA010120220804432882","brand":"CU","name":"CU익산남중점","lat":35.9419907078726,"lng":126.954172505672,"address":"전북특별자치도 익산시 남중동 147-9"},{"id":"7-ELEVEN_MA010120220803993313","brand":"7-ELEVEN","name":"세븐일레븐군산미룡주공점","lat":35.942636662944,"lng":126.686941284486,"address":"전북특별자치도 군산시 미룡동 897-2"},{"id":"GS25_MA010120220803982942","brand":"GS25","name":"지에스25전주","lat":35.8006607307068,"lng":127.170837308454,"address":"전북특별자치도 전주시 완산구 대성동 340-1"},{"id":"GS25_MA010120220803921739","brand":"GS25","name":"지에스25소룡","lat":35.9809480843487,"lng":126.676710848544,"address":"전북특별자치도 군산시 소룡동 663"},{"id":"7-ELEVEN_MA010120220803922409","brand":"7-ELEVEN","name":"세븐일레븐군산개정점","lat":35.9853621310057,"lng":126.764937904157,"address":"전북특별자치도 군산시 개정면 아동리 686-5"},{"id":"7-ELEVEN_MA010120220804285485","brand":"7-ELEVEN","name":"세븐일레븐군산경암점","lat":35.9783187804968,"lng":126.732560029908,"address":"전북특별자치도 군산시 경암동 642-6"},{"id":"CU_MA010120220804190425","brand":"CU","name":"씨유우석대","lat":35.9128420966872,"lng":127.069508145446,"address":"전북특별자치도 완주군 삼례읍 삼례리 1328-1"},{"id":"7-ELEVEN_MA010120220804482208","brand":"7-ELEVEN","name":"세븐전주효자롯데점","lat":35.8082999608089,"lng":127.112622713575,"address":"전북특별자치도 전주시 완산구 효자동1가 414"},{"id":"7-ELEVEN_MA010120220804851919","brand":"7-ELEVEN","name":"세븐일레븐전주건지점","lat":35.8410400797602,"lng":127.13285839437,"address":"전북특별자치도 전주시 덕진구 금암동 667-32"},{"id":"GS25_MA010120220804808346","brand":"GS25","name":"지에스25원광대","lat":35.9721660917566,"lng":126.95934380795,"address":"전북특별자치도 익산시 신용동 23-4"},{"id":"GS25_MA010120220804605282","brand":"GS25","name":"지에스25메트로","lat":35.9805330590068,"lng":126.723393725855,"address":"전북특별자치도 군산시 대명동 403"},{"id":"GS25_MA010120220804662526","brand":"GS25","name":"지에스25","lat":35.8724998038998,"lng":127.127374328252,"address":"전북특별자치도 전주시 덕진구 송천동2가 1331-15"},{"id":"CU_MA010120220804822760","brand":"CU","name":"CU군산솔비앙점","lat":35.9787247196472,"lng":126.677706740128,"address":"전북특별자치도 군산시 소룡동 768"},{"id":"EMART24_MA010120220804819913","brand":"EMART24","name":"이마트24self남원산리지호텔점","lat":35.4065218675512,"lng":127.389939436486,"address":"전북특별자치도 남원시 신촌동 437"},{"id":"GS25_MA010120220804863532","brand":"GS25","name":"지에스25군산해양공원","lat":35.9885970601176,"lng":126.714826817527,"address":"전북특별자치도 군산시 장미동 1-12"},{"id":"EMART24_MA010120220804663355","brand":"EMART24","name":"이마트24전주금암타운점","lat":35.8391368971166,"lng":127.142075276679,"address":"전북특별자치도 전주시 덕진구 금암동 1576-52"},{"id":"EMART24_MA010120220804837057","brand":"EMART24","name":"이마트24R고창","lat":35.4382982310241,"lng":126.693013786009,"address":"전북특별자치도 고창군 고창읍 읍내리 671-8"},{"id":"GS25_MA010120220805253453","brand":"GS25","name":"GS25전주","lat":35.8007437092378,"lng":127.125434259741,"address":"전북특별자치도 전주시 완산구 삼천동1가 585-5"},{"id":"EMART24_MA010120220805078779","brand":"EMART24","name":"이마트24전주인후타운점","lat":35.8248564446934,"lng":127.166650671043,"address":"전북특별자치도 전주시 덕진구 인후동1가 938-2"},{"id":"CU_MA010120220805102228","brand":"CU","name":"씨유익산영등","lat":35.9555680906303,"lng":126.968774330657,"address":"전북특별자치도 익산시 영등동 308-23"},{"id":"CU_MA010120220804951503","brand":"CU","name":"씨유모현","lat":35.952258791846,"lng":126.940355586841,"address":"전북특별자치도 익산시 모현동1가 832"},{"id":"7-ELEVEN_MA010120220804933070","brand":"7-ELEVEN","name":"세븐일레븐남원운봉점","lat":35.4386172173368,"lng":127.529687667115,"address":"전북특별자치도 남원시 운봉읍 서천리 206"},{"id":"7-ELEVEN_MA010120220804922554","brand":"7-ELEVEN","name":"세븐일레븐전주효자봉곡로점","lat":35.8131240045813,"lng":127.099827450696,"address":"전북특별자치도 전주시 완산구 효자동2가 1248-2"},{"id":"GS25_MA010120220805010606","brand":"GS25","name":"지에스25익산궁둥점","lat":35.9619166718308,"lng":126.992894122745,"address":"전북특별자치도 익산시 부송동 1115-1"},{"id":"GS25_MA010120220805071631","brand":"GS25","name":"지에스25익산수도산점","lat":35.9313693101259,"lng":126.967177053932,"address":"전북특별자치도 익산시 동산동 1060"},{"id":"GS25_MA010120220804892349","brand":"GS25","name":"지에스25상관IC점","lat":35.749072500719,"lng":127.220545335692,"address":"전북특별자치도 완주군 상관면 죽림리 250-2"},{"id":"EMART24_MA010120220805127570","brand":"EMART24","name":"이마트24익산육군부사관학교점","lat":36.0616639936206,"lng":127.067973865209,"address":"전북특별자치도 익산시 여산면 제남리 532-22"},{"id":"GS25_MA010120220805080847","brand":"GS25","name":"GS25군산명성점","lat":35.9719659326605,"lng":126.677878345701,"address":"전북특별자치도 군산시 소룡동 1552-4"},{"id":"7-ELEVEN_MA010120220804925183","brand":"7-ELEVEN","name":"세븐일레븐익산","lat":35.9510918678174,"lng":126.98361770101,"address":"전북특별자치도 익산시 어양동 748"},{"id":"7-ELEVEN_MA010120220805246884","brand":"7-ELEVEN","name":"세븐일레븐군산우체통","lat":35.9857866455201,"lng":126.711654414741,"address":"전북특별자치도 군산시 신창동 18-1"},{"id":"GS25_MA010120220805066475","brand":"GS25","name":"지에스25전주영화로점","lat":35.8213517645778,"lng":127.144843282261,"address":"전북특별자치도 전주시 완산구 고사동 13"},{"id":"GS25_MA010120220805119769","brand":"GS25","name":"GS25전주탑클래스점","lat":35.7839943243582,"lng":127.129113323953,"address":"전북특별자치도 전주시 완산구 평화동2가 955"},{"id":"7-ELEVEN_MA010120220805079301","brand":"7-ELEVEN","name":"세븐일레븐전주평화한성점","lat":35.79528532772,"lng":127.138855446156,"address":"전북특별자치도 전주시 완산구 평화동1가 528-3"},{"id":"GS25_MA010120220805028086","brand":"GS25","name":"GS25전북도청점","lat":35.816010437328,"lng":127.107499308334,"address":"전북특별자치도 전주시 완산구 효자동3가 1534-3"},{"id":"GS25_MA010120220804978133","brand":"GS25","name":"지에스25원광대신용점","lat":35.9731561126571,"lng":126.955562571158,"address":"전북특별자치도 익산시 신용동 346"},{"id":"EMART24_MA010120220805051256","brand":"EMART24","name":"이마트24완주혁신타운점","lat":35.8368465118132,"lng":127.056049292512,"address":"전북특별자치도 완주군 이서면 갈산리 691"},{"id":"EMART24_MA010120220805040390","brand":"EMART24","name":"이마트24익산송학점","lat":35.941660890813,"lng":126.94178214691,"address":"전북특별자치도 익산시 송학동 16-4"},{"id":"7-ELEVEN_MA010120220805047003","brand":"7-ELEVEN","name":"세븐전주도청CGV점","lat":35.8164254906574,"lng":127.106968731263,"address":"전북특별자치도 전주시 완산구 효자동3가 1533-12"},{"id":"7-ELEVEN_MA010120220805147566","brand":"7-ELEVEN","name":"세븐평화동신점","lat":35.7918447586512,"lng":127.120010987616,"address":"전북특별자치도 전주시 완산구 삼천동1가 273-9"},{"id":"EMART24_MA010120220805066597","brand":"EMART24","name":"이마트24금산사IC점","lat":35.7275627453652,"lng":126.992340237717,"address":"전북특별자치도 김제시 금산면 성계리 399-4"},{"id":"7-ELEVEN_MA010120220805029768","brand":"7-ELEVEN","name":"세븐일레븐전주서희","lat":35.8148753137208,"lng":127.106977717123,"address":"전북특별자치도 전주시 완산구 효자동2가 1156-13"},{"id":"GS25_MA010120220805064827","brand":"GS25","name":"지에스25원광대원룸점","lat":35.9592856309482,"lng":126.954450732818,"address":"전북특별자치도 익산시 신동 734-1"},{"id":"CU_MA010120220805135293","brand":"CU","name":"씨유","lat":35.8163915498437,"lng":127.123566694922,"address":"전북특별자치도 전주시 완산구 중화산동2가 650"},{"id":"CU_MA010120220805182883","brand":"CU","name":"씨유김제","lat":35.713520893285,"lng":126.992739421492,"address":"전북특별자치도 김제시 금산면 원평리 120-23"},{"id":"GS25_MA010120220805317130","brand":"GS25","name":"GS25전주호반점","lat":35.7850984273842,"lng":127.133196617938,"address":"전북특별자치도 전주시 완산구 평화동2가 889-7"},{"id":"EMART24_MA010120220805370295","brand":"EMART24","name":"이마트24전주경원점","lat":35.8221057271037,"lng":127.147389861433,"address":"전북특별자치도 전주시 완산구 경원동3가 28-3"},{"id":"CU_MA010120220805474720","brand":"CU","name":"씨유진안홍삼점","lat":35.7752637248701,"lng":127.417467264074,"address":"전북특별자치도 진안군 진안읍 단양리 749"},{"id":"EMART24_MA010120220805519062","brand":"EMART24","name":"이마트24군산임피점","lat":35.9844376826747,"lng":126.852020533162,"address":"전북특별자치도 군산시 임피면 읍내리 482-3"},{"id":"GS25_MA010120220805412416","brand":"GS25","name":"지에스25군산러브점","lat":35.9775974334983,"lng":126.724435131457,"address":"전북특별자치도 군산시 경암동 614-1"},{"id":"EMART24_MA010120220805348890","brand":"EMART24","name":"이마트24청정인성수련원점","lat":35.6859544678309,"lng":127.100066479726,"address":"전북특별자치도 완주군 구이면 안덕리 257"},{"id":"7-ELEVEN_MA010120220805283787","brand":"7-ELEVEN","name":"세븐일레븐고창동호","lat":35.5180993358559,"lng":126.484066907029,"address":"전북특별자치도 고창군 해리면 동호리 637-1"},{"id":"CU_MA010120220805452203","brand":"CU","name":"씨유익산황등점","lat":35.9992964267691,"lng":126.944656706536,"address":"전북특별자치도 익산시 황등면 황등리 1038-1"},{"id":"EMART24_MA010120220805512278","brand":"EMART24","name":"이마트24R익산신동장보고점","lat":35.9578450686436,"lng":126.958364579761,"address":"전북특별자치도 익산시 신동 743-1"},{"id":"CU_MA010120220805510760","brand":"CU","name":"씨유남원서문","lat":35.4104661597106,"lng":127.37683510942,"address":"전북특별자치도 남원시 동충동 402-1"},{"id":"7-ELEVEN_MA010120220805526536","brand":"7-ELEVEN","name":"코리아세븐군산경장","lat":35.970880083068,"lng":126.730988618338,"address":"전북특별자치도 군산시 경장동 496-13"},{"id":"7-ELEVEN_MA010120220805422341","brand":"7-ELEVEN","name":"세븐일레븐장수장계점","lat":35.7351785730896,"lng":127.583564829958,"address":"전북특별자치도 장수군 장계면 장계리 65-3"},{"id":"CU_MA010120220805372486","brand":"CU","name":"씨유전주여고명문점","lat":35.8348247507506,"lng":127.145531839528,"address":"전북특별자치도 전주시 덕진구 인후동2가 226-10"},{"id":"GS25_MA010120220805391576","brand":"GS25","name":"지에스25전주하늘점","lat":35.8216812683458,"lng":127.115175742958,"address":"전북특별자치도 전주시 완산구 중화산동2가 817-7"},{"id":"GS25_MA010120220805454836","brand":"GS25","name":"지에스25오식도대로점","lat":35.9635143549704,"lng":126.566822279767,"address":"전북특별자치도 군산시 오식도동 630-4"},{"id":"7-ELEVEN_MA010120220805259350","brand":"7-ELEVEN","name":"세븐일레븐전주이편한세상점","lat":35.8535209410318,"lng":127.156581136451,"address":"전북특별자치도 전주시 덕진구 우아동3가 743-12"},{"id":"CU_MA010120220805304060","brand":"CU","name":"씨유무주리조트햇님점","lat":35.8897984052552,"lng":127.731389878206,"address":"전북특별자치도 무주군 설천면 심곡리 산 43-15"},{"id":"GS25_MA010120220805479251","brand":"GS25","name":"지에스25소양","lat":35.8652560944156,"lng":127.247251605209,"address":"전북특별자치도 완주군 소양면 황운리 119-5"},{"id":"7-ELEVEN_MA010120220805398938","brand":"7-ELEVEN","name":"세븐일레븐무주군청점","lat":36.0062860546853,"lng":127.660613130233,"address":"전북특별자치도 무주군 무주읍 읍내리 226-2"},{"id":"EMART24_MA010120220805290388","brand":"EMART24","name":"이마트24전주하가원룸점","lat":35.8475162358503,"lng":127.109932858155,"address":"전북특별자치도 전주시 덕진구 덕진동2가 654-2"},{"id":"EMART24_MA010120220805464800","brand":"EMART24","name":"이마트24R군산소룡대로점","lat":35.9775436680011,"lng":126.674207815601,"address":"전북특별자치도 군산시 소룡동 722"},{"id":"EMART24_MA010120220805454727","brand":"EMART24","name":"이마트24군산수송타운점","lat":35.9600515561759,"lng":126.717190877406,"address":"전북특별자치도 군산시 수송동 875-7"},{"id":"CU_MA010120220805259755","brand":"CU","name":"씨유진안","lat":35.7919564107109,"lng":127.429866406157,"address":"전북특별자치도 진안군 진안읍 군상리 403-102"},{"id":"GS25_MA010120220805318378","brand":"GS25","name":"지에스25군산옥구점","lat":35.9230946305069,"lng":126.685733025376,"address":"전북특별자치도 군산시 옥구읍 선제리 97-3"},{"id":"CU_MA010120220805512650","brand":"CU","name":"씨유무주장터점","lat":36.0052738874262,"lng":127.652896128138,"address":"전북특별자치도 무주군 무주읍 읍내리 1218-2"},{"id":"7-ELEVEN_MA010120220805491039","brand":"7-ELEVEN","name":"세븐일레븐군산제일고점","lat":35.9746972540023,"lng":126.745655334901,"address":"전북특별자치도 군산시 조촌동 565-22"},{"id":"7-ELEVEN_MA010120220805962655","brand":"7-ELEVEN","name":"세븐일레븐군산새만금점","lat":35.9637262362634,"lng":126.563118477108,"address":"전북특별자치도 군산시 오식도동 623-9"},{"id":"GS25_MA010120220805642841","brand":"GS25","name":"지에스25송천","lat":35.8642265392757,"lng":127.127150721495,"address":"전북특별자치도 전주시 덕진구 송천동2가 186-20"},{"id":"GS25_MA010120220805839621","brand":"GS25","name":"GS25백제왕궁점","lat":35.9656909611993,"lng":127.083644913139,"address":"전북특별자치도 익산시 왕궁면 흥암리 449-1"},{"id":"7-ELEVEN_MA010120220805725814","brand":"7-ELEVEN","name":"세븐일레븐익산인화점","lat":35.9295716699205,"lng":126.954423457442,"address":"전북특별자치도 익산시 인화동2가 96-9"},{"id":"GS25_MA010120220805760448","brand":"GS25","name":"GS25전주백제로점","lat":35.8136698484636,"lng":127.123462893294,"address":"전북특별자치도 전주시 완산구 중화산동2가 648-7"},{"id":"7-ELEVEN_MA010120220805860882","brand":"7-ELEVEN","name":"세븐일레븐익산공단대로점","lat":35.9563111528294,"lng":126.997982561187,"address":"전북특별자치도 익산시 부송동 231-42"},{"id":"CU_MA010120220805803634","brand":"CU","name":"씨유전북대","lat":35.8449230073189,"lng":127.125869072683,"address":"전북특별자치도 전주시 덕진구 덕진동1가 664-6"},{"id":"CU_MA010120220806029905","brand":"CU","name":"씨유정읍우미점","lat":35.5596495041747,"lng":126.873133582799,"address":"전북특별자치도 정읍시 상동 182-1"},{"id":"EMART24_MA010120220805960426","brand":"EMART24","name":"이마트24전주문학로점","lat":35.8267034659787,"lng":127.102832481791,"address":"전북특별자치도 전주시 완산구 효자동3가 1622-1"},{"id":"EMART24_MA010120220805890777","brand":"EMART24","name":"이마트24","lat":35.9754415117805,"lng":126.735574439468,"address":"전북특별자치도 군산시 조촌동 833-4"},{"id":"CU_MA010120220806146954","brand":"CU","name":"씨유군산","lat":35.9684861835872,"lng":126.698302688787,"address":"전북특별자치도 군산시 나운동 826-13"},{"id":"GS25_MA010120220806025301","brand":"GS25","name":"지에스25김제","lat":35.8051871452283,"lng":126.883741695514,"address":"전북특별자치도 김제시 요촌동 368-31"},{"id":"CU_MA010120220805894767","brand":"CU","name":"씨유김제서암","lat":35.8078190119532,"lng":126.874941861103,"address":"전북특별자치도 김제시 서암동 225-1"},{"id":"CU_MA010120220805773988","brand":"CU","name":"씨유원광대병원","lat":35.9744613758208,"lng":126.951603650427,"address":"전북특별자치도 익산시 신용동 344-2"},{"id":"CU_MA010120220805996626","brand":"CU","name":"씨유덕진","lat":35.8445823495698,"lng":127.124119592524,"address":"전북특별자치도 전주시 덕진구 덕진동1가 1279-4"},{"id":"7-ELEVEN_MA010120220805957725","brand":"7-ELEVEN","name":"세븐일레븐익산부송로점","lat":35.9558057575749,"lng":126.98687564653,"address":"전북특별자치도 익산시 어양동 107"},{"id":"CU_MA010120220805889043","brand":"CU","name":"씨유익산영등","lat":35.9475923385036,"lng":126.969675241527,"address":"전북특별자치도 익산시 영등동 252-1"},{"id":"CU_MA010120220805854905","brand":"CU","name":"씨유전주삼천안행점","lat":35.7999553549506,"lng":127.129448910582,"address":"전북특별자치도 전주시 완산구 삼천동1가 732-11"},{"id":"7-ELEVEN_MA010120220806157034","brand":"7-ELEVEN","name":"세븐일레븐군산맨하탄점","lat":35.9647578292998,"lng":126.56676005868,"address":"전북특별자치도 군산시 오식도동 621-6"},{"id":"CU_MA010120220806410348","brand":"CU","name":"씨유임실오수점","lat":35.5412409885987,"lng":127.329168077063,"address":"전북특별자치도 임실군 오수면 오수리 387-43"},{"id":"EMART24_MA010120220806380408","brand":"EMART24","name":"이마트24SMART전주클래시아점","lat":35.8485751838957,"lng":127.161774220462,"address":"전북특별자치도 전주시 덕진구 우아동3가 766"},{"id":"7-ELEVEN_MA010120220806521480","brand":"7-ELEVEN","name":"세븐일레븐전주인후건산점","lat":35.8335425342195,"lng":127.154693566358,"address":"전북특별자치도 전주시 덕진구 인후동1가 626-19"},{"id":"7-ELEVEN_MA010120220806475304","brand":"7-ELEVEN","name":"세븐일레븐전주","lat":35.8422478157484,"lng":127.140730415176,"address":"전북특별자치도 전주시 덕진구 금암동 1586-1"},{"id":"7-ELEVEN_MA010120220806557651","brand":"7-ELEVEN","name":"세븐일레븐익산모현배산점","lat":35.9509889641906,"lng":126.942240835478,"address":"전북특별자치도 익산시 모현동1가 391-9"},{"id":"CU_MA010120220806571427","brand":"CU","name":"씨유전주홍산점","lat":35.8208654128156,"lng":127.100335110454,"address":"전북특별자치도 전주시 완산구 효자동3가 1686-6"},{"id":"7-ELEVEN_MA010120220806571346","brand":"7-ELEVEN","name":"세븐일레븐익산부송원룸점","lat":35.954598654052,"lng":126.993825883718,"address":"전북특별자치도 익산시 부송동 1049-1"},{"id":"CU_MA010120220806368456","brand":"CU","name":"씨유KCC스위첸점","lat":35.863916335821,"lng":127.130671102897,"address":"전북특별자치도 전주시 덕진구 송천동1가 97-6"},{"id":"GS25_MA010120220806354083","brand":"GS25","name":"지에스25여의만남점","lat":35.8714224776374,"lng":127.080987861433,"address":"전북특별자치도 전주시 덕진구 여의동2가 643-7"},{"id":"CU_MA010120220806481571","brand":"CU","name":"씨유영등프라임점","lat":35.9566330294205,"lng":126.975081204361,"address":"전북특별자치도 익산시 영등동 771-2"},{"id":"GS25_MA010120220806650178","brand":"GS25","name":"GS25전북체육회","lat":35.8407949100797,"lng":127.126194612623,"address":"전북특별자치도 전주시 덕진구 덕진동1가 1283-2"},{"id":"GS25_MA010120220806656083","brand":"GS25","name":"지에스25익산인북로점","lat":35.9428923018484,"lng":126.955102953218,"address":"전북특별자치도 익산시 남중동 158-10"},{"id":"GS25_MA010120220806717596","brand":"GS25","name":"GS25남원","lat":35.4152742845028,"lng":127.389739376131,"address":"전북특별자치도 남원시 향교동 1049-4"},{"id":"CU_MA010120220806740254","brand":"CU","name":"씨유정읍또와점","lat":35.562452074283,"lng":126.872687953163,"address":"전북특별자치도 정읍시 상동 156-1"},{"id":"GS25_MA010120220806877437","brand":"GS25","name":"GS25전주","lat":35.8609958972117,"lng":127.122473374299,"address":"전북특별자치도 전주시 덕진구 송천동1가 485-16"},{"id":"GS25_MA010120220806860871","brand":"GS25","name":"지에스25고창삼일점","lat":35.4284697559763,"lng":126.694934135745,"address":"전북특별자치도 고창군 고창읍 읍내리 1135"},{"id":"7-ELEVEN_MA010120220806654447","brand":"7-ELEVEN","name":"세븐전주송천점","lat":35.8665203586391,"lng":127.122692247573,"address":"전북특별자치도 전주시 덕진구 송천동2가 247-4"},{"id":"7-ELEVEN_MA010120220806691608","brand":"7-ELEVEN","name":"세븐일레븐전주인후기린점","lat":35.8325197960558,"lng":127.158011852914,"address":"전북특별자치도 전주시 덕진구 인후동1가 811-1"},{"id":"CU_MA010120220806851729","brand":"CU","name":"씨유장수IC점","lat":35.7037484511228,"lng":127.578617521192,"address":"전북특별자치도 장수군 계남면 화음리 966-4"},{"id":"CU_MA010120220806927022","brand":"CU","name":"씨유송천대명점","lat":35.8631675745505,"lng":127.113652461004,"address":"전북특별자치도 전주시 덕진구 송천동2가 530-3"},{"id":"CU_MA010120220806909347","brand":"CU","name":"씨유대성","lat":35.7991727232461,"lng":127.17769314681,"address":"전북특별자치도 전주시 완산구 대성동 261-1"},{"id":"7-ELEVEN_MA010120220806902360","brand":"7-ELEVEN","name":"세븐일레븐","lat":35.8432995369834,"lng":127.127017691371,"address":"전북특별자치도 전주시 덕진구 덕진동1가 1263-21"},{"id":"CU_MA010120220806707408","brand":"CU","name":"씨유평화","lat":35.786637701541,"lng":127.134891551395,"address":"전북특별자치도 전주시 완산구 평화동2가 896-1"},{"id":"7-ELEVEN_MA010120220806662519","brand":"7-ELEVEN","name":"세븐일레븐전북완주운주점","lat":36.0927422637982,"lng":127.277609647768,"address":"전북특별자치도 완주군 운주면 장선리 573-4"},{"id":"CU_MA010120220806903168","brand":"CU","name":"씨유진안안천점","lat":35.897553246964,"lng":127.55176860375,"address":"전북특별자치도 진안군 안천면 노성리 716-3"},{"id":"7-ELEVEN_MA010120220806687488","brand":"7-ELEVEN","name":"세븐일레븐익산목천대로점","lat":35.9168359529697,"lng":126.932837175716,"address":"전북특별자치도 익산시 목천동 409-2"},{"id":"CU_MA010120220806710913","brand":"CU","name":"씨유정읍내장하늘점","lat":35.5302956685851,"lng":126.893357241666,"address":"전북특별자치도 정읍시 부전동 969-2"},{"id":"GS25_MA010120220806663589","brand":"GS25","name":"지에스25완주용진점","lat":35.880568258536,"lng":127.156025268053,"address":"전북특별자치도 완주군 용진읍 용흥리 859-1"},{"id":"CU_MA010120220806590182","brand":"CU","name":"씨유군산경암점","lat":35.9754668354985,"lng":126.730751306107,"address":"전북특별자치도 군산시 경암동 680-4"},{"id":"7-ELEVEN_MA010120220806664636","brand":"7-ELEVEN","name":"세븐전주대학로점","lat":35.8432169062998,"lng":127.128445468695,"address":"전북특별자치도 전주시 덕진구 금암동 664-77"},{"id":"7-ELEVEN_MA010120220806591355","brand":"7-ELEVEN","name":"세븐일레븐정읍건강공단점","lat":35.5860131240837,"lng":126.857600904229,"address":"전북특별자치도 정읍시 수성동 904-1"},{"id":"GS25_MA010120220806703473","brand":"GS25","name":"지에스25전북대","lat":35.8395604216202,"lng":127.134294839074,"address":"전북특별자치도 전주시 덕진구 금암동 603-3"},{"id":"GS25_MA010120220806643704","brand":"GS25","name":"지에스25전북대타운점","lat":35.8427864692235,"lng":127.134698760959,"address":"전북특별자치도 전주시 덕진구 금암동 628-5"},{"id":"EMART24_MA010120220806798353","brand":"EMART24","name":"이마트24전주용복점","lat":35.7908770175732,"lng":127.066182795658,"address":"전북특별자치도 전주시 완산구 용복동 243"},{"id":"CU_MA010120220806714365","brand":"CU","name":"씨유익산자연생태공원점","lat":35.9297575824014,"lng":126.973216930795,"address":"전북특별자치도 익산시 금강동 607-23"},{"id":"CU_MA010120220806820370","brand":"CU","name":"씨유익산하나로점","lat":36.0349512274836,"lng":126.980049684147,"address":"전북특별자치도 익산시 삼기면 오룡리 855-24"},{"id":"GS25_MA010120220806852018","brand":"GS25","name":"GS25군산경장점","lat":35.9702928787839,"lng":126.734405327957,"address":"전북특별자치도 군산시 경장동 548-9"},{"id":"CU_MA010120220806762918","brand":"CU","name":"씨유에코데시앙네스트점","lat":35.8757883209459,"lng":127.136537451963,"address":"전북특별자치도 전주시 덕진구 송천동2가 1345"},{"id":"7-ELEVEN_MA010120220807331562","brand":"7-ELEVEN","name":"세븐일레븐익산배산점","lat":35.9570535760001,"lng":126.940728869905,"address":"전북특별자치도 익산시 모현동2가 198-2"},{"id":"CU_MA010120220807235739","brand":"CU","name":"씨유전주아중은혜점","lat":35.8341166706126,"lng":127.170012506353,"address":"전북특별자치도 전주시 덕진구 우아동2가 880-1"},{"id":"GS25_MA010120220807237894","brand":"GS25","name":"GS25전주풍림점","lat":35.8076470559653,"lng":127.107133984791,"address":"전북특별자치도 전주시 완산구 효자동2가 157-4"},{"id":"7-ELEVEN_MA010120220807305269","brand":"7-ELEVEN","name":"세븐일레븐익산","lat":35.9551721943139,"lng":126.971379383695,"address":"전북특별자치도 익산시 영등동 765-6"},{"id":"CU_MA010120220807192596","brand":"CU","name":"씨유군산수송","lat":35.9684707884163,"lng":126.714100984874,"address":"전북특별자치도 군산시 수송동 803-3"},{"id":"CU_MA010120220807358042","brand":"CU","name":"씨유정읍2","lat":35.5932536149984,"lng":126.868247452589,"address":"전북특별자치도 정읍시 하북동 862-4"},{"id":"7-ELEVEN_MA010120220807226296","brand":"7-ELEVEN","name":"세븐일레븐익산영등우남점","lat":35.9591031152001,"lng":126.978649868822,"address":"전북특별자치도 익산시 영등동 851-1"},{"id":"7-ELEVEN_MA010120220807320172","brand":"7-ELEVEN","name":"세븐일레븐익산인화평동점","lat":35.9315778312515,"lng":126.945734509053,"address":"전북특별자치도 익산시 평화동 327"},{"id":"EMART24_MA010120220807298850","brand":"EMART24","name":"이마트24익산원보전점","lat":35.9736785988761,"lng":126.954941392029,"address":"전북특별자치도 익산시 신용동 333-16"},{"id":"GS25_MA010120220807382866","brand":"GS25","name":"GS25김제","lat":35.8034118929759,"lng":126.89373465856,"address":"전북특별자치도 김제시 요촌동 47-24"},{"id":"CU_MA010120220807303501","brand":"CU","name":"씨유요촌","lat":35.7979033946174,"lng":126.891739631846,"address":"전북특별자치도 김제시 요촌동 128-1"},{"id":"GS25_MA010120220807320161","brand":"GS25","name":"GS25김제진우점","lat":35.8064944126756,"lng":126.893962895951,"address":"전북특별자치도 김제시 요촌동 547-11"},{"id":"EMART24_MA010120220807309717","brand":"EMART24","name":"이마트24전주","lat":35.8084185282649,"lng":127.129152844553,"address":"전북특별자치도 전주시 완산구 중화산동2가 50"},{"id":"7-ELEVEN_MA010120220807095733","brand":"7-ELEVEN","name":"세븐일레븐전주빌리언점","lat":35.8055124917887,"lng":127.148222177777,"address":"전북특별자치도 전주시 완산구 서서학동 117-2"},{"id":"CU_MA010120220807188801","brand":"CU","name":"씨유군산공단점","lat":35.9640571775188,"lng":126.609444298199,"address":"전북특별자치도 군산시 내초동 191-5"},{"id":"CU_MA010120220807249113","brand":"CU","name":"씨유무주","lat":35.8674315780947,"lng":127.654542649459,"address":"전북특별자치도 무주군 안성면 장기리 1330-26"},{"id":"CU_MA010120220807308819","brand":"CU","name":"씨유원광대점","lat":35.9717157664206,"lng":126.960219910347,"address":"전북특별자치도 익산시 신동 272"},{"id":"7-ELEVEN_MA010120220807290795","brand":"7-ELEVEN","name":"세븐전주서신으뜸점주","lat":35.8368014610194,"lng":127.108645234493,"address":"전북특별자치도 전주시 완산구 서신동 933-1"},{"id":"CU_MA010120220807332520","brand":"CU","name":"씨유인후","lat":35.8271863482926,"lng":127.163258024893,"address":"전북특별자치도 전주시 덕진구 인후동1가 894-11"},{"id":"GS25_MA010120220807142620","brand":"GS25","name":"지에스25소룡","lat":35.9774762682163,"lng":126.679297361675,"address":"전북특별자치도 군산시 소룡동 775-14"},{"id":"7-ELEVEN_MA010120220807343366","brand":"7-ELEVEN","name":"세븐원광대점주","lat":35.9611249203654,"lng":126.956500494211,"address":"전북특별자치도 익산시 신동 798-1"},{"id":"EMART24_MA010120220807187480","brand":"EMART24","name":"이마트24군산코오롱점","lat":35.9687024281169,"lng":126.680862786567,"address":"전북특별자치도 군산시 산북동 3537-10"},{"id":"7-ELEVEN_MA010120220807348291","brand":"7-ELEVEN","name":"세븐일레븐정읍법원원룸점","lat":35.5855922698224,"lng":126.859951783309,"address":"전북특별자치도 정읍시 수성동 1011-6"},{"id":"CU_MA010120220807141260","brand":"CU","name":"씨유부안서외점","lat":35.7268035353997,"lng":126.727379487247,"address":"전북특별자치도 부안군 부안읍 서외리 444-5"},{"id":"CU_MA010120220807135292","brand":"CU","name":"씨유무주리조트","lat":35.9109579922039,"lng":127.759169308004,"address":"전북특별자치도 무주군 설천면 심곡리 680-29"},{"id":"GS25_MA010120220807251219","brand":"GS25","name":"GS25모악산점","lat":35.7294174621568,"lng":127.106598046708,"address":"전북특별자치도 완주군 구이면 원기리 1068-2"},{"id":"7-ELEVEN_MA010120220807198231","brand":"7-ELEVEN","name":"세븐일레븐군산수송공원점","lat":35.9654273301432,"lng":126.719067425468,"address":"전북특별자치도 군산시 수송동 848"},{"id":"CU_MA010120220807225454","brand":"CU","name":"씨유전주평화주공점","lat":35.7969053087087,"lng":127.140827413578,"address":"전북특별자치도 전주시 완산구 평화동1가 445-1"},{"id":"GS25_MA010120220807008685","brand":"GS25","name":"GS25전주여울점","lat":35.8377295851067,"lng":127.10883466108,"address":"전북특별자치도 전주시 완산구 서신동 1015-2"},{"id":"GS25_MA010120220807327480","brand":"GS25","name":"GS25신흥공단점","lat":35.9405109024643,"lng":126.981004386173,"address":"전북특별자치도 익산시 신흥동 736-2"},{"id":"7-ELEVEN_MA010120220807325977","brand":"7-ELEVEN","name":"세븐일레븐익산인화","lat":35.9314067098854,"lng":126.945989497033,"address":"전북특별자치도 익산시 인화동1가 169-5"},{"id":"CU_MA010120220807261599","brand":"CU","name":"씨유봉동원룸점","lat":35.9602763032519,"lng":127.123369194265,"address":"전북특별자치도 완주군 봉동읍 둔산리 893-1"},{"id":"GS25_MA010120220807320314","brand":"GS25","name":"GS25익산IC점","lat":35.9650526652823,"lng":127.011274513098,"address":"전북특별자치도 익산시 팔봉동 452"},{"id":"GS25_MA010120220807192331","brand":"GS25","name":"GS25산북타운점","lat":35.9569496436609,"lng":126.673904438238,"address":"전북특별자치도 군산시 산북동 3637"},{"id":"GS25_MA010120220807231022","brand":"GS25","name":"GS25서곡미라클","lat":35.8317827097047,"lng":127.096619112288,"address":"전북특별자치도 전주시 완산구 효자동3가 1482-1"},{"id":"EMART24_MA010120220807310932","brand":"EMART24","name":"이마트24R익산어양","lat":35.9570034440579,"lng":126.979914115358,"address":"전북특별자치도 익산시 어양동 643-6"},{"id":"CU_MA010120220807301477","brand":"CU","name":"씨유","lat":35.9284196971391,"lng":126.958911896555,"address":"전북특별자치도 익산시 동산동 607-4"},{"id":"7-ELEVEN_MA010120220807234070","brand":"7-ELEVEN","name":"세븐일레븐편의점","lat":35.8319770632078,"lng":127.145294222043,"address":"전북특별자치도 전주시 덕진구 진북동 263-11"},{"id":"7-ELEVEN_MA010120220807266062","brand":"7-ELEVEN","name":"세븐일레븐전주삼천호반점","lat":35.7984862324186,"lng":127.111524701596,"address":"전북특별자치도 전주시 완산구 삼천동1가 284-6"},{"id":"CU_MA010120220807241705","brand":"CU","name":"씨유전주","lat":35.809417801424,"lng":127.153142013164,"address":"전북특별자치도 전주시 완산구 동서학동 137"},{"id":"7-ELEVEN_MA010120220807290791","brand":"7-ELEVEN","name":"세븐전주시청제일점주","lat":35.8245218281646,"lng":127.146796739138,"address":"전북특별자치도 전주시 완산구 서노송동 619-6"},{"id":"GS25_MA010120220807307093","brand":"GS25","name":"GS２５익산","lat":35.9615276214481,"lng":126.979635830863,"address":"전북특별자치도 익산시 영등동 822"},{"id":"CU_MA010120220807301463","brand":"CU","name":"씨유익산영등원룸점/매직카피/매직공인중개사무소","lat":35.9629680627357,"lng":126.971986287621,"address":"전북특별자치도 익산시 영등동 807-1"},{"id":"CU_MA010120220807230136","brand":"CU","name":"씨유송천","lat":35.8651750705575,"lng":127.116057976451,"address":"전북특별자치도 전주시 덕진구 송천동1가 824-1"},{"id":"EMART24_MA010120220807261696","brand":"EMART24","name":"이마트24전주효자","lat":35.8131426704858,"lng":127.099052931723,"address":"전북특별자치도 전주시 완산구 효자동2가 1247-1"},{"id":"GS25_MA010120220807262302","brand":"GS25","name":"지에스25뉴우석대점","lat":35.9149336994927,"lng":127.068269121417,"address":"전북특별자치도 완주군 삼례읍 후정리 13-32"},{"id":"CU_MA010120220807312747","brand":"CU","name":"씨유익산부영큐점","lat":35.9631769157747,"lng":126.979790608451,"address":"전북특별자치도 익산시 영등동 818-14"},{"id":"GS25_MA010120220807198572","brand":"GS25","name":"GS25군산대","lat":35.9472923639913,"lng":126.685526397069,"address":"전북특별자치도 군산시 미룡동 866-1"},{"id":"GS25_MA010120220807178327","brand":"GS25","name":"GS25군산","lat":35.9683915184602,"lng":126.679178895442,"address":"전북특별자치도 군산시 산북동 3535-4"},{"id":"7-ELEVEN_MA010120220807290343","brand":"7-ELEVEN","name":"세븐전북대점주","lat":35.8432995369834,"lng":127.127017691371,"address":"전북특별자치도 전주시 덕진구 덕진동1가 1263-21"},{"id":"CU_MA010120220807360001","brand":"CU","name":"씨유정읍상동","lat":35.5627729657328,"lng":126.869345244784,"address":"전북특별자치도 정읍시 상동 136-3"},{"id":"GS25_MA010120220807083162","brand":"GS25","name":"지에스25전주진버들점","lat":35.8361346539205,"lng":127.164128596998,"address":"전북특별자치도 전주시 덕진구 인후동1가 807-2"},{"id":"7-ELEVEN_MA010120220807348671","brand":"7-ELEVEN","name":"세븐일레븐고창","lat":35.4361858544586,"lng":126.69526846282,"address":"전북특별자치도 고창군 고창읍 읍내리 658-3"},{"id":"7-ELEVEN_MA010120220807290701","brand":"7-ELEVEN","name":"세븐전주중화산어은점주","lat":35.8163930760969,"lng":127.12207287656,"address":"전북특별자치도 전주시 완산구 중화산동2가 629"},{"id":"GS25_MA010120220806987487","brand":"GS25","name":"지에스25새만금비전점","lat":35.9460708429856,"lng":126.563049436743,"address":"전북특별자치도 군산시 오식도동 991"},{"id":"GS25_MA010120220807197959","brand":"GS25","name":"GS25군산조촌로점","lat":35.9725795993688,"lng":126.737402263065,"address":"전북특별자치도 군산시 조촌동 841-12"},{"id":"GS25_MA010120220807352208","brand":"GS25","name":"GS25고창","lat":35.4316839714858,"lng":126.700747583925,"address":"전북특별자치도 고창군 고창읍 읍내리 378-7"},{"id":"CU_MA010120220807233075","brand":"CU","name":"씨유전주해성점","lat":35.7863255628264,"lng":127.104395378017,"address":"전북특별자치도 전주시 완산구 삼천동2가 557-2"},{"id":"7-ELEVEN_MA010120220807334800","brand":"7-ELEVEN","name":"세븐일레븐전주래미앙점","lat":35.8537185248818,"lng":127.108114782809,"address":"전북특별자치도 전주시 덕진구 팔복동1가 119-16"},{"id":"CU_MA010120220807361058","brand":"CU","name":"씨유부안내","lat":35.6112707660544,"lng":126.588507613621,"address":"전북특별자치도 부안군 진서면 석포리 253-28"},{"id":"GS25_MA010120220807192943","brand":"GS25","name":"GS25점","lat":35.9551832553539,"lng":126.708972353597,"address":"전북특별자치도 군산시 지곡동 158-1"},{"id":"GS25_MA010120220807267578","brand":"GS25","name":"지에스25평화","lat":35.7889166641575,"lng":127.118988924726,"address":"전북특별자치도 전주시 완산구 평화동2가 716-8"},{"id":"7-ELEVEN_MA010120220807304293","brand":"7-ELEVEN","name":"세븐일레븐김제요촌","lat":35.7996180945495,"lng":126.884524220788,"address":"전북특별자치도 김제시 요촌동 474-6"},{"id":"GS25_MA010120220807195454","brand":"GS25","name":"GS25군산IC점","lat":35.9842526416433,"lng":126.759895833848,"address":"전북특별자치도 군산시 구암동 4-9"},{"id":"GS25_MA010120220807257105","brand":"GS25","name":"GS25전주서곡점","lat":35.8351598297511,"lng":127.099799707349,"address":"전북특별자치도 전주시 완산구 효자동3가 1453-1"},{"id":"GS25_MA010120220807208983","brand":"GS25","name":"GS25군산하이츠점","lat":35.9755453974199,"lng":126.681844201797,"address":"전북특별자치도 군산시 소룡동 1381-5"},{"id":"GS25_MA010120220807253330","brand":"GS25","name":"GS25삼천","lat":35.7990786259578,"lng":127.114125320067,"address":"전북특별자치도 전주시 완산구 효자동1가 667-12"},{"id":"CU_MA010120220807191060","brand":"CU","name":"씨유지곡원룸점","lat":35.9575222061914,"lng":126.710936895153,"address":"전북특별자치도 군산시 지곡동 548-6"},{"id":"7-ELEVEN_MA010120220807221070","brand":"7-ELEVEN","name":"세븐유원점주","lat":35.9606348542306,"lng":126.690606041174,"address":"전북특별자치도 군산시 나운동 862-7"},{"id":"GS25_MA010120220807231217","brand":"GS25","name":"지에스25효자시티점","lat":35.8246238568696,"lng":127.100107444303,"address":"전북특별자치도 전주시 완산구 효자동3가 1636-1"},{"id":"GS25_MA010120220807182945","brand":"GS25","name":"GS25익산웅포","lat":36.0640446840683,"lng":126.877223799811,"address":"전북특별자치도 익산시 웅포면 웅포리 859-12"},{"id":"7-ELEVEN_MA010120220807290396","brand":"7-ELEVEN","name":"세븐","lat":35.8229595726848,"lng":127.14929483427,"address":"전북특별자치도 전주시 완산구 서노송동 568-137"},{"id":"7-ELEVEN_MA010120220807290389","brand":"7-ELEVEN","name":"세븐우아점주","lat":35.8475898008227,"lng":127.157255795739,"address":"전북특별자치도 전주시 덕진구 우아동3가 748-26"},{"id":"EMART24_MA010120220807231017","brand":"EMART24","name":"이마트24시전주삼천도서관","lat":35.7983948774416,"lng":127.122067463509,"address":"전북특별자치도 전주시 완산구 삼천동1가 606"},{"id":"CU_MA010120220806937273","brand":"CU","name":"씨유전주서신예촌점","lat":35.8265401486244,"lng":127.114031820928,"address":"전북특별자치도 전주시 완산구 서신동 846-11"},{"id":"CU_MA010120220807354301","brand":"CU","name":"씨유정읍내","lat":35.4949171719716,"lng":126.926632594085,"address":"전북특별자치도 정읍시 내장동 51-1"},{"id":"GS25_MA010120220807271134","brand":"GS25","name":"GS25전주대신","lat":35.8131264750662,"lng":127.096806739257,"address":"전북특별자치도 전주시 완산구 효자동3가 1730-1"},{"id":"7-ELEVEN_MA010120220807321149","brand":"7-ELEVEN","name":"세븐일레븐신동","lat":35.9592781471781,"lng":126.958674214401,"address":"전북특별자치도 익산시 신동 820-52"},{"id":"CU_MA010120220807273993","brand":"CU","name":"씨유전주비젼대학점","lat":35.8108778854831,"lng":127.090961913494,"address":"전북특별자치도 전주시 완산구 효자동2가 1070"},{"id":"GS25_MA010120220807304177","brand":"GS25","name":"GS25익산","lat":35.9532517783401,"lng":126.943713413445,"address":"전북특별자치도 익산시 모현동1가 514-1"},{"id":"7-ELEVEN_MA010120220807238091","brand":"7-ELEVEN","name":"세븐일레븐","lat":35.8339650503753,"lng":127.133001547502,"address":"전북특별자치도 전주시 덕진구 금암동 459-13"},{"id":"GS25_MA010120220807318052","brand":"GS25","name":"GS25익산","lat":35.9628746718407,"lng":126.960390631093,"address":"전북특별자치도 익산시 신동 765-34"},{"id":"7-ELEVEN_MA010120220807221413","brand":"7-ELEVEN","name":"세븐군산나운일번지점","lat":35.9625112606702,"lng":126.691319288921,"address":"전북특별자치도 군산시 나운동 853-4"},{"id":"7-ELEVEN_MA010120220807196725","brand":"7-ELEVEN","name":"세븐일레븐산북동원룸점","lat":35.9660135577487,"lng":126.676306121568,"address":"전북특별자치도 군산시 산북동 3556-5"},{"id":"GS25_MA010120220807297529","brand":"GS25","name":"GS25익산인화점","lat":35.9316870768412,"lng":126.948216665484,"address":"전북특별자치도 익산시 인화동1가 135-86"},{"id":"GS25_MA010120220807199541","brand":"GS25","name":"GS25나운","lat":35.9730415192609,"lng":126.696356197359,"address":"전북특별자치도 군산시 나운동 750-8"},{"id":"CU_MA010120220807360339","brand":"CU","name":"씨유부안상록점","lat":35.6014909608234,"lng":126.485110272561,"address":"전북특별자치도 부안군 변산면 도청리 485-1"},{"id":"7-ELEVEN_MA010120220807221274","brand":"7-ELEVEN","name":"세븐군산수송보건점주","lat":35.9642651089672,"lng":126.719226744811,"address":"전북특별자치도 군산시 수송동 850-11"},{"id":"7-ELEVEN_MA010120220807315677","brand":"7-ELEVEN","name":"세븐일레븐","lat":35.819778827989,"lng":127.095497983524,"address":"전북특별자치도 전주시 완산구 효자동3가 1677-1"},{"id":"7-ELEVEN_MA010120220807324029","brand":"7-ELEVEN","name":"세븐일레븐익산체육공원점","lat":35.9470455667525,"lng":126.985757658401,"address":"전북특별자치도 익산시 신흥동 405-17"},{"id":"7-ELEVEN_MA010120220807365859","brand":"7-ELEVEN","name":"세븐일레븐고창대산정류소점","lat":35.3386747097015,"lng":126.600333014442,"address":"전북특별자치도 고창군 대산면 산정리 3-1"},{"id":"CU_MA010120220807361868","brand":"CU","name":"씨유고창선운사점","lat":35.5029746157072,"lng":126.586801202214,"address":"전북특별자치도 고창군 아산면 삼인리 392-18"},{"id":"GS25_MA010120220807321255","brand":"GS25","name":"GS25영등대로","lat":35.9554873452582,"lng":126.970215375133,"address":"전북특별자치도 익산시 영등동 755-6"},{"id":"GS25_MA010120220807267587","brand":"GS25","name":"GS25전주","lat":35.8208123959681,"lng":127.118936911781,"address":"전북특별자치도 전주시 완산구 중화산동2가 576"},{"id":"GS25_MA010120220807267129","brand":"GS25","name":"지에스25효자","lat":35.8078221485423,"lng":127.102719623343,"address":"전북특별자치도 전주시 완산구 효자동2가 1320-1"},{"id":"7-ELEVEN_MA010120220807232858","brand":"7-ELEVEN","name":"세븐일레븐봉동아리랑휴게소점","lat":35.9725399739576,"lng":127.125472645777,"address":"전북특별자치도 완주군 봉동읍 장구리 90-37"},{"id":"CU_MA010120220807353803","brand":"CU","name":"씨유고창선점","lat":35.4359517373099,"lng":126.695357448955,"address":"전북특별자치도 고창군 고창읍 읍내리 625"},{"id":"GS25_MA010120220807255794","brand":"GS25","name":"GS25우석대","lat":35.9107276626089,"lng":127.063180492739,"address":"전북특별자치도 완주군 삼례읍 후정리 399-1"},{"id":"GS25_MA010120220807259815","brand":"GS25","name":"GS25완주공단","lat":35.9212334019873,"lng":127.168725125368,"address":"전북특별자치도 완주군 용진읍 신지리 1135-10"},{"id":"GS25_MA010120220807300689","brand":"GS25","name":"GS25익산","lat":35.9515501551535,"lng":126.975681345476,"address":"전북특별자치도 익산시 영등동 714-1"},{"id":"CU_MA010120220807186005","brand":"CU","name":"씨유군산대점","lat":35.9472497381761,"lng":126.686457580871,"address":"전북특별자치도 군산시 미룡동 867-5"},{"id":"CU_MA010120220807242208","brand":"CU","name":"씨유전주우아대로점복권","lat":35.8354993494085,"lng":127.167337004023,"address":"전북특별자치도 전주시 덕진구 우아동2가 866-1"},{"id":"CU_MA010120220807186391","brand":"CU","name":"씨유군산","lat":35.9464014322158,"lng":126.810683794282,"address":"전북특별자치도 군산시 대야면 지경리 731-18"},{"id":"GS25_MA010120220807258363","brand":"GS25","name":"GS25전주박물관","lat":35.7999986087345,"lng":127.092321330504,"address":"전북특별자치도 전주시 완산구 효자동2가 884-2"},{"id":"GS25_MA010120220807325239","brand":"GS25","name":"GS25익산신동","lat":35.9668643824461,"lng":126.952716917171,"address":"전북특별자치도 익산시 신동 311-2"},{"id":"7-ELEVEN_MA010120220807343353","brand":"7-ELEVEN","name":"세븐영등２호점주","lat":35.9600299596655,"lng":126.971721276899,"address":"전북특별자치도 익산시 영등동 827-2"},{"id":"GS25_MA010120220807266580","brand":"GS25","name":"GS25완주주공점","lat":35.9292385077779,"lng":127.160652976356,"address":"전북특별자치도 완주군 봉동읍 낙평리 1210-1"},{"id":"GS25_MA010120220807259831","brand":"GS25","name":"GS25전주슈퍼스타","lat":35.8119566848148,"lng":127.094481726882,"address":"전북특별자치도 전주시 완산구 효자동3가 1731-1"},{"id":"CU_MA010120220807231798","brand":"CU","name":"씨유전주한옥대호점","lat":35.8166240734254,"lng":127.149006338255,"address":"전북특별자치도 전주시 완산구 전동 1-16"},{"id":"CU_MA010120220807368251","brand":"CU","name":"씨유금암","lat":35.8365663713766,"lng":127.127748523412,"address":"전북특별자치도 전주시 덕진구 금암동 793-28"},{"id":"CU_MA010120220807243189","brand":"CU","name":"씨유전주","lat":35.8103889294678,"lng":127.114694725802,"address":"전북특별자치도 전주시 완산구 효자동1가 370-1"},{"id":"EMART24_MA010120220807304389","brand":"EMART24","name":"이마트24익산신동오렌지점","lat":35.9600911486877,"lng":126.964571200277,"address":"전북특별자치도 익산시 신동 776-1"},{"id":"EMART24_MA010120220807232148","brand":"EMART24","name":"이마트24R완주대아성림점","lat":35.9839029903955,"lng":127.248064761132,"address":"전북특별자치도 완주군 고산면 소향리 777-3"},{"id":"GS25_MA010120220807200294","brand":"GS25","name":"GS25군산미룡점","lat":35.9582084104251,"lng":126.676138441646,"address":"전북특별자치도 군산시 미룡동 854-7"},{"id":"EMART24_MA010120220807197428","brand":"EMART24","name":"이마트24군산시립도서관점","lat":35.9653439306356,"lng":126.710520377898,"address":"전북특별자치도 군산시 나운동 1536-7"},{"id":"7-ELEVEN_MA010120220807343372","brand":"7-ELEVEN","name":"세븐인화３호점주","lat":35.9305782341536,"lng":126.947497108342,"address":"전북특별자치도 익산시 인화동1가 173-5"},{"id":"CU_MA010120220807326686","brand":"CU","name":"CU김제요촌대로점","lat":35.8100562519141,"lng":126.886135587109,"address":"전북특별자치도 김제시 요촌동 353"},{"id":"7-ELEVEN_MA010120220807361112","brand":"7-ELEVEN","name":"세븐일레븐하이안주공점","lat":35.7220400918092,"lng":126.741575748951,"address":"전북특별자치도 부안군 부안읍 봉덕리 910"},{"id":"GS25_MA010120220807257302","brand":"GS25","name":"GS25효자","lat":35.8196667654759,"lng":127.100300404752,"address":"전북특별자치도 전주시 완산구 효자동3가 1688-9"},{"id":"GS25_MA010120220807200982","brand":"GS25","name":"지에스25군산옥서점","lat":35.9245822439747,"lng":126.643965340795,"address":"전북특별자치도 군산시 옥서면 옥봉리 1313-23"},{"id":"EMART24_MA010120220807316440","brand":"EMART24","name":"이마트24익산무왕로점","lat":35.9628060283561,"lng":126.972806689302,"address":"전북특별자치도 익산시 영등동 807-9"},{"id":"GS25_MA010120220807359487","brand":"GS25","name":"GS25상동대로","lat":35.5560620012977,"lng":126.872819381724,"address":"전북특별자치도 정읍시 상동 255-92"},{"id":"GS25_MA010120220807235181","brand":"GS25","name":"GS25삼례IC점","lat":35.9185555099416,"lng":127.084337588652,"address":"전북특별자치도 완주군 삼례읍 신금리 800-13"},{"id":"CU_MA010120220807244188","brand":"CU","name":"씨유전주부킹점","lat":35.8255143745198,"lng":127.121533512022,"address":"전북특별자치도 전주시 완산구 서신동 896-5"},{"id":"GS25_MA010120220807193002","brand":"GS25","name":"GS25새만금기로점","lat":35.9417081166521,"lng":126.534092242641,"address":"전북특별자치도 군산시 비응도동 50"},{"id":"CU_MA010120220807359416","brand":"CU","name":"씨유정읍터미널","lat":35.5731636113494,"lng":126.845378363611,"address":"전북특별자치도 정읍시 연지동 313"},{"id":"GS25_MA010120220807243850","brand":"GS25","name":"GS25전주대학사점","lat":35.8181277804203,"lng":127.085857883311,"address":"전북특별자치도 전주시 완산구 효자동3가 1345-6"},{"id":"CU_MA010120220807251307","brand":"CU","name":"씨유완주","lat":35.9560410669769,"lng":127.139302524305,"address":"전북특별자치도 완주군 봉동읍 용암리 226-1"},{"id":"CU_MA010120220807244721","brand":"CU","name":"씨유전주우아점","lat":35.8489691090009,"lng":127.156959632741,"address":"전북특별자치도 전주시 덕진구 우아동3가 746-20"},{"id":"CU_MA010120220807248713","brand":"CU","name":"씨유전주모악점","lat":35.7913879289863,"lng":127.117156337844,"address":"전북특별자치도 전주시 완산구 삼천동1가 306-26"},{"id":"CU_MA010120220807327581","brand":"CU","name":"씨유부송","lat":35.9581676878706,"lng":126.997029196404,"address":"전북특별자치도 익산시 부송동 235-7"},{"id":"GS25_MA010120220807184954","brand":"GS25","name":"GS25군산한길점","lat":35.9794368356655,"lng":126.71327418918,"address":"전북특별자치도 군산시 삼학동 265-9"},{"id":"GS25_MA010120220807380829","brand":"GS25","name":"지에스25부안","lat":35.6641611888876,"lng":126.527979262791,"address":"전북특별자치도 부안군 변산면 지서리 404-12"},{"id":"7-ELEVEN_MA010120220807343722","brand":"7-ELEVEN","name":"세븐익산송학으뜸점주","lat":35.9428316820888,"lng":126.940107763653,"address":"전북특별자치도 익산시 모현동1가 254-9"},{"id":"CU_MA010120220807312651","brand":"CU","name":"씨유익산리젠시빌점","lat":35.96452975477,"lng":126.98684094513,"address":"전북특별자치도 익산시 부송동 669"},{"id":"7-ELEVEN_MA010120220807209929","brand":"7-ELEVEN","name":"세븐일레븐진안IC점","lat":35.785404900334,"lng":127.422055277906,"address":"전북특별자치도 진안군 진안읍 군하리 308-3"},{"id":"7-ELEVEN_MA010120220807262702","brand":"7-ELEVEN","name":"세븐일레븐전주호남","lat":35.814161322425,"lng":127.098777571072,"address":"전북특별자치도 전주시 완산구 효자동3가 1722-7"},{"id":"7-ELEVEN_MA010120220807246431","brand":"7-ELEVEN","name":"세븐일레븐전주","lat":35.8342035873421,"lng":127.12046211617,"address":"전북특별자치도 전주시 완산구 서신동 970-3"},{"id":"CU_MA010120220807231480","brand":"CU","name":"씨유전주공영점","lat":35.8681723235976,"lng":127.075824751801,"address":"전북특별자치도 전주시 덕진구 여의동 658-5"},{"id":"EMART24_MA010120220807299985","brand":"EMART24","name":"이마트24R익산부영","lat":35.9540115497159,"lng":126.981300436187,"address":"전북특별자치도 익산시 어양동 653-1"},{"id":"EMART24_MA010120220807361682","brand":"EMART24","name":"이마트24R부안채석강점","lat":35.6271104086526,"lng":126.471710229025,"address":"전북특별자치도 부안군 변산면 격포리 274-34"},{"id":"CU_MA010120220807269291","brand":"CU","name":"씨유전주효자","lat":35.8176003508563,"lng":127.103285492924,"address":"전북특별자치도 전주시 완산구 효자동2가 1229-6"},{"id":"7-ELEVEN_MA010120220807343345","brand":"7-ELEVEN","name":"세븐익산영등점주","lat":35.9551721943139,"lng":126.971379383695,"address":"전북특별자치도 익산시 영등동 765-6"},{"id":"CU_MA010120220807190069","brand":"CU","name":"씨유요촌점","lat":35.8041341167838,"lng":126.895116651652,"address":"전북특별자치도 김제시 요촌동 614-5"},{"id":"CU_MA010120220807121025","brand":"CU","name":"CU군산오식도점","lat":35.9477321767816,"lng":126.568881310289,"address":"전북특별자치도 군산시 오식도동 817-3"},{"id":"CU_MA010120220807190560","brand":"CU","name":"씨유군산대원룸점","lat":35.9440335387096,"lng":126.686924691922,"address":"전북특별자치도 군산시 미룡동 886-5"},{"id":"CU_MA010120220807315676","brand":"CU","name":"씨유익산인화점","lat":35.9324344937548,"lng":126.946808828448,"address":"전북특별자치도 익산시 인화동1가 136-4"},{"id":"7-ELEVEN_MA010120220807343693","brand":"7-ELEVEN","name":"세븐익산영등3호점주","lat":35.9603283162236,"lng":126.976077728654,"address":"전북특별자치도 익산시 영등동 821"},{"id":"7-ELEVEN_MA010120220807326399","brand":"7-ELEVEN","name":"세븐일레븐김제요촌","lat":35.8098488256598,"lng":126.885992045593,"address":"전북특별자치도 김제시 요촌동 353-5"},{"id":"7-ELEVEN_MA010120220807250322","brand":"7-ELEVEN","name":"세븐일레븐전주중인점","lat":35.7785661308089,"lng":127.103854348755,"address":"전북특별자치도 전주시 완산구 삼천동2가 382-1"},{"id":"CU_MA010120220807276554","brand":"CU","name":"씨유전주효자주공점","lat":35.8119688424048,"lng":127.101673814366,"address":"전북특별자치도 전주시 완산구 효자동2가 1254-8"},{"id":"CU_MA010120220807316001","brand":"CU","name":"씨유익산함열점","lat":36.0786736304584,"lng":126.959910762459,"address":"전북특별자치도 익산시 함열읍 와리 549-10"},{"id":"7-ELEVEN_MA010120220807290875","brand":"7-ELEVEN","name":"세븐전주완산구청점","lat":35.8122512494444,"lng":127.118094286623,"address":"전북특별자치도 전주시 완산구 효자동1가 593-8"},{"id":"CU_MA010120220807151759","brand":"CU","name":"씨유정읍역점","lat":35.5750271426318,"lng":126.843708944272,"address":"전북특별자치도 정읍시 연지동 343-11"},{"id":"7-ELEVEN_MA010120220807260047","brand":"7-ELEVEN","name":"세븐일레븐전주도교육청점","lat":35.8048489632714,"lng":127.101565166196,"address":"전북특별자치도 전주시 완산구 효자동2가 1324-2"},{"id":"GS25_MA010120220807361194","brand":"GS25","name":"지에스25정읍스마일","lat":35.563456516095,"lng":126.860034428197,"address":"전북특별자치도 정읍시 상동 580-3"},{"id":"EMART24_MA010120220807270087","brand":"EMART24","name":"이마트24전주비보이","lat":35.8164047292878,"lng":127.110000607153,"address":"전북특별자치도 전주시 완산구 효자동3가 1538-7"},{"id":"CU_MA010120220807355508","brand":"CU","name":"씨유호남점","lat":35.5611763887515,"lng":126.852604074995,"address":"전북특별자치도 정읍시 시기동 505-11"},{"id":"7-ELEVEN_MA010120220807290354","brand":"7-ELEVEN","name":"세븐전주중앙점주","lat":35.8171289612704,"lng":127.141394260582,"address":"전북특별자치도 전주시 완산구 중앙동1가 33-1"},{"id":"CU_MA010120220807305527","brand":"CU","name":"씨유익산용안점","lat":36.1186406958506,"lng":126.954347763388,"address":"전북특별자치도 익산시 용안면 교동리 190-7"},{"id":"EMART24_MA010120220807326261","brand":"EMART24","name":"이마트24익산","lat":35.9617319739715,"lng":126.966554787217,"address":"전북특별자치도 익산시 신동 142-1"},{"id":"GS25_MA010120220807354957","brand":"GS25","name":"GS25고창타운점","lat":35.4372434970957,"lng":126.711200546686,"address":"전북특별자치도 고창군 고창읍 월곡리 621"},{"id":"GS25_MA010120220807484317","brand":"GS25","name":"지에스25호원기숙사점","lat":35.9679229322958,"lng":126.863780810579,"address":"전북특별자치도 군산시 임피면 월하리 727"},{"id":"7-ELEVEN_MA010120220807961089","brand":"7-ELEVEN","name":"세븐일레븐전주교보점","lat":35.8364347247431,"lng":127.132795375091,"address":"전북특별자치도 전주시 덕진구 금암동 475-4"},{"id":"CU_MA010120220807932995","brand":"CU","name":"씨유송천오송점","lat":35.8667301787276,"lng":127.128882004383,"address":"전북특별자치도 전주시 덕진구 송천동2가 175-63"},{"id":"CU_MA010120220807963873","brand":"CU","name":"씨유무주리조트만선점","lat":35.8897984052552,"lng":127.731389878206,"address":"전북특별자치도 무주군 설천면 심곡리 산 43-15"},{"id":"7-ELEVEN_MA010120220807989337","brand":"7-ELEVEN","name":"세븐전주아중로점","lat":35.831525852731,"lng":127.172961983927,"address":"전북특별자치도 전주시 덕진구 우아동2가 920-3"},{"id":"CU_MA010120220807750710","brand":"CU","name":"씨유신태인","lat":35.6880144584488,"lng":126.885403375263,"address":"전북특별자치도 정읍시 신태인읍 신태인리 132-116"},{"id":"CU_MA010120220807749522","brand":"CU","name":"씨유부안","lat":35.6640120405495,"lng":126.529018291857,"address":"전북특별자치도 부안군 변산면 지서리 407-3"},{"id":"7-ELEVEN_MA010120220807962719","brand":"7-ELEVEN","name":"세븐전주아중로점","lat":35.831525852731,"lng":127.172961983927,"address":"전북특별자치도 전주시 덕진구 우아동2가 920-3"},{"id":"7-ELEVEN_MA010120220807935831","brand":"7-ELEVEN","name":"세븐일레븐임실","lat":35.5699045505675,"lng":127.311315297084,"address":"전북특별자치도 임실군 오수면 봉천리 636-41"},{"id":"EMART24_MA010120220807972491","brand":"EMART24","name":"이마트24R전주송천","lat":35.8633635533339,"lng":127.116055335451,"address":"전북특별자치도 전주시 덕진구 송천동1가 837-1"},{"id":"EMART24_MA010120220807971782","brand":"EMART24","name":"이마트24전북대원룸점","lat":35.8393157907977,"lng":127.135445552793,"address":"전북특별자치도 전주시 덕진구 금암동 614-5"},{"id":"CU_MA010120220807392861","brand":"CU","name":"씨유뉴부안곰소점","lat":35.5875726270843,"lng":126.609173630001,"address":"전북특별자치도 부안군 진서면 곰소리 272"},{"id":"CU_MA010120220807424402","brand":"CU","name":"씨유순창","lat":35.3767662420877,"lng":127.141194149991,"address":"전북특별자치도 순창군 순창읍 순화리 114-1"},{"id":"7-ELEVEN_MA010120220807972488","brand":"7-ELEVEN","name":"세븐전주사학회관점","lat":35.8466788637367,"lng":127.15074510809,"address":"전북특별자치도 전주시 덕진구 인후동2가 1573-1"},{"id":"7-ELEVEN_MA010120220807963782","brand":"7-ELEVEN","name":"세븐일레븐완주지방행정연","lat":35.8318551183687,"lng":127.024403822012,"address":"전북특별자치도 완주군 이서면 용서리 760-8"},{"id":"GS25_MA010120220807959975","brand":"GS25","name":"GS25전주샤르망점","lat":35.8383995630322,"lng":127.16864916412,"address":"전북특별자치도 전주시 덕진구 산정동 861-10"},{"id":"CU_MA010120220807852996","brand":"CU","name":"씨유무주한풍루점","lat":36.004353939103,"lng":127.661251400237,"address":"전북특별자치도 무주군 무주읍 당산리 1238"},{"id":"GS25_MA010120220807791942","brand":"GS25","name":"지에스25효자원룸점","lat":35.83425663882,"lng":127.102100683077,"address":"전북특별자치도 전주시 완산구 효자동3가 1440-7"},{"id":"GS25_MA010120220807715353","brand":"GS25","name":"지에스25황등해담점","lat":35.9977463510099,"lng":126.944757605108,"address":"전북특별자치도 익산시 황등면 황등리 1043-2"},{"id":"7-ELEVEN_MA010120220807436366","brand":"7-ELEVEN","name":"세븐일레븐전주뉴기전대학교점","lat":35.8178295234023,"lng":127.13567462074,"address":"전북특별자치도 전주시 완산구 중화산동1가 176-1"},{"id":"GS25_MA010120220807960914","brand":"GS25","name":"지에스25덕진공원점","lat":35.8468571073819,"lng":127.120591944373,"address":"전북특별자치도 전주시 덕진구 덕진동2가 189-24"},{"id":"7-ELEVEN_MA010120220807713971","brand":"7-ELEVEN","name":"세븐일레븐김제난산","lat":35.8778215860744,"lng":126.996655687225,"address":"전북특별자치도 김제시 백구면 마산리 446-6"},{"id":"7-ELEVEN_MA010120220807822538","brand":"7-ELEVEN","name":"세븐일레븐전주온누리점","lat":35.822504350942,"lng":127.121351864551,"address":"전북특별자치도 전주시 완산구 중화산동2가 698-7"},{"id":"7-ELEVEN_MA010120220807959475","brand":"7-ELEVEN","name":"세븐일레븐전주인후","lat":35.8432535981205,"lng":127.151137112905,"address":"전북특별자치도 전주시 덕진구 인후동2가 1550-11"},{"id":"GS25_MA010120220807421991","brand":"GS25","name":"GS25송천시티","lat":35.8596434557412,"lng":127.113879928589,"address":"전북특별자치도 전주시 덕진구 송천동1가 692-1"},{"id":"CU_MA010120220807967424","brand":"CU","name":"씨유하가","lat":35.8461279071944,"lng":127.11036265147,"address":"전북특별자치도 전주시 덕진구 덕진동2가 661-9"},{"id":"EMART24_MA010120220807967743","brand":"EMART24","name":"이마트24우아사랑","lat":35.8322381783945,"lng":127.172731111646,"address":"전북특별자치도 전주시 덕진구 우아동2가 898-5"},{"id":"CU_MA010120220807425941","brand":"CU","name":"씨유","lat":35.6489426791604,"lng":127.519224398599,"address":"전북특별자치도 장수군 장수읍 장수리 456-10"},{"id":"GS25_MA010120220807391403","brand":"GS25","name":"GS25부안채석강점","lat":35.6249210933228,"lng":126.47189021227,"address":"전북특별자치도 부안군 변산면 격포리 302-10"},{"id":"7-ELEVEN_MA010120220807430601","brand":"7-ELEVEN","name":"국성세븐일레븐순창","lat":35.3759360425627,"lng":127.149501387626,"address":"전북특별자치도 순창군 순창읍 남계리 99-5"},{"id":"7-ELEVEN_MA010120220807772153","brand":"7-ELEVEN","name":"세븐일레븐익산","lat":35.9236261252551,"lng":126.910958996977,"address":"전북특별자치도 익산시 오산면 남전리 7-6"},{"id":"GS25_MA010120220807970271","brand":"GS25","name":"GS25아중","lat":35.8325884045724,"lng":127.160646073293,"address":"전북특별자치도 전주시 덕진구 인후동1가 825-7"},{"id":"CU_MA010120220807978176","brand":"CU","name":"CU전주IC점","lat":35.8743457697442,"lng":127.060139629981,"address":"전북특별자치도 전주시 덕진구 용정동 36-12"},{"id":"GS25_MA010120220807963589","brand":"GS25","name":"지에스25뉴","lat":35.8438646005725,"lng":127.13767818555,"address":"전북특별자치도 전주시 덕진구 금암동 631-319"},{"id":"CU_MA010120220807971360","brand":"CU","name":"씨유중앙여고명문점","lat":35.8290273801766,"lng":127.168009575347,"address":"전북특별자치도 전주시 덕진구 인후동1가 1039"},{"id":"CU_MA010120220807943247","brand":"CU","name":"씨유김제대검산점","lat":35.8035141917799,"lng":126.908537559016,"address":"전북특별자치도 김제시 검산동 526"},{"id":"CU_MA010120220807435980","brand":"CU","name":"씨유임실청웅점","lat":35.5705602663394,"lng":127.202371671906,"address":"전북특별자치도 임실군 청웅면 구고리 419-4"},{"id":"GS25_MA010120220807427436","brand":"GS25","name":"GS25남원노암","lat":35.39595940029,"lng":127.378297650428,"address":"전북특별자치도 남원시 노암동 211-1"},{"id":"7-ELEVEN_MA010120220807426337","brand":"7-ELEVEN","name":"세븐일레븐진안","lat":35.792114674161,"lng":127.430973446565,"address":"전북특별자치도 진안군 진안읍 군상리 403-19"},{"id":"7-ELEVEN_MA010120220807989351","brand":"7-ELEVEN","name":"세븐전주북부점주","lat":35.8422478157484,"lng":127.140730415176,"address":"전북특별자치도 전주시 덕진구 금암동 1586-1"},{"id":"CU_MA010120220807962432","brand":"CU","name":"씨유전북대","lat":35.8447869906164,"lng":127.142738440119,"address":"전북특별자치도 전주시 덕진구 금암동 1596-18"},{"id":"CU_MA010120220807420764","brand":"CU","name":"씨유임실","lat":35.5296686243674,"lng":127.160183371708,"address":"전북특별자치도 임실군 강진면 갈담리 516-1"},{"id":"7-ELEVEN_MA010120220807427694","brand":"7-ELEVEN","name":"세븐일레븐남원","lat":35.4152892513261,"lng":127.390686321489,"address":"전북특별자치도 남원시 도통동 535-2"},{"id":"EMART24_MA010120220807426032","brand":"EMART24","name":"이마트24남원쌍교점","lat":35.4061058350801,"lng":127.384763246631,"address":"전북특별자치도 남원시 쌍교동 14"},{"id":"GS25_MA010120220807967812","brand":"GS25","name":"GS25전북대사랑","lat":35.8417386227959,"lng":127.128653393675,"address":"전북특별자치도 전주시 덕진구 덕진동1가 1264-21"},{"id":"CU_MA010120220807965492","brand":"CU","name":"씨유공단대로점","lat":35.8538743031606,"lng":127.105225581708,"address":"전북특별자치도 전주시 덕진구 팔복동1가 139-15"},{"id":"7-ELEVEN_MA010120220807417017","brand":"7-ELEVEN","name":"세븐일레븐군산내초점","lat":35.96372148801,"lng":126.60875863264,"address":"전북특별자치도 군산시 내초동 191-12"},{"id":"GS25_MA010120220807927712","brand":"GS25","name":"지에스25군산","lat":35.946250659226,"lng":126.812235830566,"address":"전북특별자치도 군산시 대야면 지경리 728-1"},{"id":"GS25_MA010120220807782396","brand":"GS25","name":"GS25호성","lat":35.8593219897418,"lng":127.151920456628,"address":"전북특별자치도 전주시 덕진구 호성동1가 822-1"},{"id":"CU_MA010120220807970809","brand":"CU","name":"씨유무주","lat":36.0100938057834,"lng":127.663040797704,"address":"전북특별자치도 무주군 무주읍 읍내리 337-7"},{"id":"EMART24_MA010120220807427610","brand":"EMART24","name":"이마트24R남원이","lat":35.4258845084189,"lng":127.408300968235,"address":"전북특별자치도 남원시 고죽동 147-3"},{"id":"7-ELEVEN_MA010120220807823962","brand":"7-ELEVEN","name":"세븐일레븐전주인후낭만점","lat":35.8379541792119,"lng":127.151160265666,"address":"전북특별자치도 전주시 덕진구 인후동1가 574"},{"id":"GS25_MA010120220807956749","brand":"GS25","name":"GS25효자행복","lat":35.8221082964376,"lng":127.101354758901,"address":"전북특별자치도 전주시 완산구 효자동3가 1666-2"},{"id":"GS25_MA010120220807957175","brand":"GS25","name":"GS25덕진","lat":35.8444283334097,"lng":127.12489419875,"address":"전북특별자치도 전주시 덕진구 덕진동1가 1314-201"},{"id":"GS25_MA010120220807484900","brand":"GS25","name":"GS25완주이서점","lat":35.8201112910571,"lng":127.026347818977,"address":"전북특별자치도 완주군 이서면 상개리 546-41"},{"id":"7-ELEVEN_MA010120220807957888","brand":"7-ELEVEN","name":"세븐일레븐무주구","lat":35.9002189571417,"lng":127.776933437637,"address":"전북특별자치도 무주군 설천면 삼공리 418-19"},{"id":"7-ELEVEN_MA010120220808180167","brand":"7-ELEVEN","name":"세븐일레븐부안개암쉼터점","lat":35.6476792838617,"lng":126.66935792751,"address":"전북특별자치도 부안군 상서면 감교리 753-4"},{"id":"CU_MA010120220808086834","brand":"CU","name":"씨유태평아이파크","lat":35.8226791151985,"lng":127.134952503089,"address":"전북특별자치도 전주시 완산구 태평동 305"},{"id":"7-ELEVEN_MA010120220807989426","brand":"7-ELEVEN","name":"세븐전주진북우성점","lat":35.8316820526466,"lng":127.135521118392,"address":"전북특별자치도 전주시 덕진구 진북동 416-2"},{"id":"CU_MA010120220808226680","brand":"CU","name":"씨유군산나운점","lat":35.9682594909746,"lng":126.701352325244,"address":"전북특별자치도 군산시 나운동 817-1"},{"id":"EMART24_MA010120220808045888","brand":"EMART24","name":"이마트24동전주IC점","lat":35.8420313183063,"lng":127.175165359309,"address":"전북특별자치도 전주시 덕진구 산정동 319-33"},{"id":"7-ELEVEN_MA010120220808087215","brand":"7-ELEVEN","name":"세븐일레븐군산","lat":35.9718050377732,"lng":126.713967006518,"address":"전북특별자치도 군산시 수송동 427-9"},{"id":"7-ELEVEN_MA010120220807993690","brand":"7-ELEVEN","name":"세븐일레븐순창IC점","lat":35.3705478947267,"lng":127.140501062189,"address":"전북특별자치도 순창군 순창읍 교성리 394-26"},{"id":"EMART24_MA010120220808170268","brand":"EMART24","name":"이마트24완주","lat":35.7220021037553,"lng":127.232882384873,"address":"전북특별자치도 완주군 상관면 용암리 431-1"},{"id":"7-ELEVEN_MA010120220808336779","brand":"7-ELEVEN","name":"세븐일레븐군산해양수산청점","lat":35.9725366024478,"lng":126.682344105401,"address":"전북특별자치도 군산시 소룡동 1530-1"},{"id":"GS25_MA010120220808264294","brand":"GS25","name":"지에스25군산삼학점","lat":35.9765787669232,"lng":126.709049056566,"address":"전북특별자치도 군산시 삼학동 812-38"},{"id":"7-ELEVEN_MA010120220807989628","brand":"7-ELEVEN","name":"세븐전주스타점주","lat":35.83174318285,"lng":127.15917239695,"address":"전북특별자치도 전주시 덕진구 인후동1가 827-14"},{"id":"7-ELEVEN_MA010120220808330734","brand":"7-ELEVEN","name":"세븐일레븐전주서신","lat":35.8330786474311,"lng":127.10932635395,"address":"전북특별자치도 전주시 완산구 서신동 761-2"},{"id":"7-ELEVEN_MA010120220808290524","brand":"7-ELEVEN","name":"세븐일레븐군산지곡","lat":35.9583789246262,"lng":126.707441975511,"address":"전북특별자치도 군산시 지곡동 507-6"},{"id":"GS25_MA010120220808293229","brand":"GS25","name":"지에스25뉴원광타운점","lat":35.9627825236289,"lng":126.954670439393,"address":"전북특별자치도 익산시 신동 345-1"},{"id":"EMART24_MA010120220808069494","brand":"EMART24","name":"이마트24전주","lat":35.8372949553955,"lng":127.060554384368,"address":"전북특별자치도 전주시 덕진구 중동 777-3"},{"id":"CU_MA010120220808335134","brand":"CU","name":"씨유화심","lat":35.8419647130422,"lng":127.27358960425,"address":"전북특별자치도 완주군 소양면 화심리 123-2"},{"id":"GS25_MA010120220808080914","brand":"GS25","name":"지에스25전주아중점","lat":35.828146352439,"lng":127.172810780128,"address":"전북특별자치도 전주시 덕진구 우아동1가 1090-1"},{"id":"GS25_MA010120220808130110","brand":"GS25","name":"지에스25익산","lat":35.95787891499,"lng":126.990045627184,"address":"전북특별자치도 익산시 부송동 1036-2"},{"id":"GS25_MA010120220808095923","brand":"GS25","name":"지에스25뉴수송","lat":35.9654415808572,"lng":126.717459895901,"address":"전북특별자치도 군산시 수송동 843"},{"id":"CU_MA010120220808229911","brand":"CU","name":"씨유장수사과점","lat":35.6516884880398,"lng":127.519937841523,"address":"전북특별자치도 장수군 장수읍 장수리 420-4"},{"id":"CU_MA010120220808029518","brand":"CU","name":"씨유원광대","lat":35.9611086674234,"lng":126.961699601752,"address":"전북특별자치도 익산시 신동 767-13"},{"id":"CU_MA010120220808197914","brand":"CU","name":"씨유군산성산점","lat":35.9900856300379,"lng":126.784696515084,"address":"전북특별자치도 군산시 성산면 고봉리 263-46"},{"id":"GS25_MA010120220808244015","brand":"GS25","name":"지에스25전주대기만성점","lat":35.8392410934679,"lng":127.07728039156,"address":"전북특별자치도 전주시 덕진구 만성동 1290-1"},{"id":"7-ELEVEN_MA010120220808049978","brand":"7-ELEVEN","name":"세븐일레븐익산장신점","lat":35.9511373644269,"lng":126.932985500793,"address":"전북특별자치도 익산시 오산면 장신리 1126"},{"id":"EMART24_MA010120220808194223","brand":"EMART24","name":"이마트24김제위성점","lat":35.8042143770456,"lng":126.89414294481,"address":"전북특별자치도 김제시 요촌동 612-2"},{"id":"CU_MA010120220808083417","brand":"CU","name":"씨유뉴효자원룸점","lat":35.819777765696,"lng":127.096825879636,"address":"전북특별자치도 전주시 완산구 효자동3가 1679-1"},{"id":"GS25_MA010120220808220189","brand":"GS25","name":"지에스25중산공원점","lat":35.8237037375253,"lng":127.120645443523,"address":"전북특별자치도 전주시 완산구 중화산동2가 693-2"},{"id":"EMART24_MA010120220808227959","brand":"EMART24","name":"이마트24전주완산","lat":35.8131484012906,"lng":127.102958845416,"address":"전북특별자치도 전주시 완산구 효자동2가 1258-1"},{"id":"GS25_MA010120220808318522","brand":"GS25","name":"GS25군산모아점","lat":35.9880989970216,"lng":126.710071330303,"address":"전북특별자치도 군산시 중앙로1가 7-4"},{"id":"CU_MA010120220808287132","brand":"CU","name":"씨유군산내초대로점","lat":35.9601455414196,"lng":126.620593185485,"address":"전북특별자치도 군산시 내초동 186-17"},{"id":"CU_MA010120220808055456","brand":"CU","name":"씨유뉴전주고사점","lat":35.8210834022866,"lng":127.143160764788,"address":"전북특별자치도 전주시 완산구 고사동 242-6"},{"id":"7-ELEVEN_MA010120220807989588","brand":"7-ELEVEN","name":"세븐전주아중리점","lat":35.8298687665678,"lng":127.172106213504,"address":"전북특별자치도 전주시 덕진구 우아동2가 914-1"},{"id":"7-ELEVEN_MA010120220808503839","brand":"7-ELEVEN","name":"세븐일레븐부안","lat":35.7227603493179,"lng":126.737064065004,"address":"전북특별자치도 부안군 부안읍 봉덕리 782-1"},{"id":"GS25_MA010120220808679695","brand":"GS25","name":"GS25전주서부로점","lat":35.8525888036174,"lng":127.077127286127,"address":"전북특별자치도 전주시 덕진구 여의동 857"},{"id":"7-ELEVEN_MA010120220808350052","brand":"7-ELEVEN","name":"세븐일레븐고창웰파크시티점","lat":35.4306010412761,"lng":126.739019260419,"address":"전북특별자치도 고창군 고창읍 석정리 783"},{"id":"CU_MA010120220808643879","brand":"CU","name":"씨유남원동림로점","lat":35.4176996225932,"lng":127.383860446787,"address":"전북특별자치도 남원시 향교동 340-9"},{"id":"GS25_MA010120220808563750","brand":"GS25","name":"지에스25정읍플렉스점","lat":35.5831650630369,"lng":126.857628012738,"address":"전북특별자치도 정읍시 수성동 1029-12"},{"id":"7-ELEVEN_MA010120220808382046","brand":"7-ELEVEN","name":"세븐익산남부점","lat":35.929850988145,"lng":126.954245999011,"address":"전북특별자치도 익산시 인화동2가 94-5"},{"id":"CU_MA010120220808478688","brand":"CU","name":"씨유익산제일","lat":35.9556411441015,"lng":126.97268721321,"address":"전북특별자치도 익산시 영등동 767-3"},{"id":"CU_MA010120220808539554","brand":"CU","name":"씨유전주서곡대로점","lat":35.8325436459385,"lng":127.102806813868,"address":"전북특별자치도 전주시 완산구 효자동3가 1472-1"},{"id":"CU_MA010120220808410399","brand":"CU","name":"CU전주삼례로","lat":35.8867190533247,"lng":127.077448320495,"address":"전북특별자치도 전주시 덕진구 고랑동 614-7"},{"id":"7-ELEVEN_MA010120220808427416","brand":"7-ELEVEN","name":"세븐일레븐김제하동","lat":35.8097109534662,"lng":126.892874307667,"address":"전북특별자치도 김제시 하동 595"},{"id":"CU_MA010120220808393719","brand":"CU","name":"씨유남원","lat":35.406255843533,"lng":127.380085164592,"address":"전북특별자치도 남원시 쌍교동 249-1"},{"id":"EMART24_MA010120220808394132","brand":"EMART24","name":"이마트24전주","lat":35.8335863487847,"lng":127.141058218165,"address":"전북특별자치도 전주시 덕진구 진북동 348-2"},{"id":"CU_MA010120220808494757","brand":"CU","name":"씨유송천","lat":35.864423661468,"lng":127.128236093387,"address":"전북특별자치도 전주시 덕진구 송천동1가 107-78"},{"id":"CU_MA010120220808604083","brand":"CU","name":"씨유변산해수욕장점","lat":35.677464039053,"lng":126.530297922145,"address":"전북특별자치도 부안군 변산면 대항리 621-7"},{"id":"GS25_MA010120220808367779","brand":"GS25","name":"GS25아중","lat":35.8302721347443,"lng":127.173634365988,"address":"전북특별자치도 전주시 덕진구 우아동2가 929-1"},{"id":"7-ELEVEN_MA010120220808436331","brand":"7-ELEVEN","name":"세븐일레븐군산나운한밭점","lat":35.9611439584723,"lng":126.69232230073,"address":"전북특별자치도 군산시 나운동 1187-20"},{"id":"7-ELEVEN_MA010120220808675306","brand":"7-ELEVEN","name":"세븐일레븐임실","lat":35.6148019890999,"lng":127.280253145713,"address":"전북특별자치도 임실군 임실읍 이도리 743-2"},{"id":"EMART24_MA010120220808629696","brand":"EMART24","name":"이마트24전주비사벌점","lat":35.8657638824208,"lng":127.122126399497,"address":"전북특별자치도 전주시 덕진구 송천동2가 197-12"},{"id":"7-ELEVEN_MA010120220808593348","brand":"7-ELEVEN","name":"세븐일레븐김제벚꽃점","lat":35.9087018674497,"lng":126.940764950722,"address":"전북특별자치도 김제시 백구면 삼정리 324-18"},{"id":"CU_MA010120220808623555","brand":"CU","name":"씨유군산지곡","lat":35.9581914004442,"lng":126.704471874847,"address":"전북특별자치도 군산시 지곡동 496-1"},{"id":"CU_MA010120220808809914","brand":"CU","name":"씨유익산부송","lat":35.9577797215696,"lng":126.989380537603,"address":"전북특별자치도 익산시 부송동 768"},{"id":"7-ELEVEN_MA010120220808768813","brand":"7-ELEVEN","name":"세븐일레븐익산영등","lat":35.9579939637777,"lng":126.975380073597,"address":"전북특별자치도 익산시 영등동 770-18"},{"id":"EMART24_MA010120220808995683","brand":"EMART24","name":"이마트24전주송천솔내점","lat":35.8688897310583,"lng":127.12359278311,"address":"전북특별자치도 전주시 덕진구 송천동2가 321-3"},{"id":"CU_MA010120220808734830","brand":"CU","name":"씨유군산소룡","lat":35.9702404784714,"lng":126.676355387798,"address":"전북특별자치도 군산시 소룡동 1566-1"},{"id":"GS25_MA010120220809233723","brand":"GS25","name":"지에스25효자효녀점","lat":35.8027733417441,"lng":127.132175090759,"address":"전북특별자치도 전주시 완산구 효자동1가 683-15"},{"id":"CU_MA010120220808998017","brand":"CU","name":"씨유김제청보리점","lat":35.8037662535859,"lng":126.886996460976,"address":"전북특별자치도 김제시 요촌동 321-17"},{"id":"CU_MA010120220808737874","brand":"CU","name":"씨유효천","lat":35.8047082910666,"lng":127.107860243819,"address":"전북특별자치도 전주시 완산구 효자동2가 203-5"},{"id":"GS25_MA010120220809236374","brand":"GS25","name":"지에스25전주","lat":35.8100121809278,"lng":127.153497216679,"address":"전북특별자치도 전주시 완산구 동서학동 92-3"},{"id":"CU_MA010120220808717522","brand":"CU","name":"씨유원광대원룸점","lat":35.9605025217202,"lng":126.955026475556,"address":"전북특별자치도 익산시 신동 797-7"},{"id":"7-ELEVEN_MA010120220808770664","brand":"7-ELEVEN","name":"세븐일레븐완주봉동","lat":35.9328897253808,"lng":127.166400603004,"address":"전북특별자치도 완주군 봉동읍 낙평리 1249"},{"id":"7-ELEVEN_MA010120220808725170","brand":"7-ELEVEN","name":"세븐일레븐군산수송비발디점","lat":35.9610122441759,"lng":126.719482139096,"address":"전북특별자치도 군산시 수송동 883"},{"id":"GS25_MA010120220809079133","brand":"GS25","name":"지에스25한옥","lat":35.8133176029433,"lng":127.148070708259,"address":"전북특별자치도 전주시 완산구 전동 183"},{"id":"GS25_MA010120220809207094","brand":"GS25","name":"GS25서신","lat":35.8353290241691,"lng":127.112328860703,"address":"전북특별자치도 전주시 완산구 서신동 962-1"},{"id":"CU_MA010120220809642985","brand":"CU","name":"씨유기전원룸점","lat":35.8266773886706,"lng":127.101703637757,"address":"전북특별자치도 전주시 완산구 효자동3가 1606-1"},{"id":"CU_MA010120220809651994","brand":"CU","name":"씨유무주일번지점","lat":35.9076849311852,"lng":127.755138977566,"address":"전북특별자치도 무주군 설천면 심곡리 568-14"},{"id":"GS25_MA010120220809593182","brand":"GS25","name":"GS25수송오투점","lat":35.9622257095327,"lng":126.71054284418,"address":"전북특별자치도 군산시 수송동 791"},{"id":"GS25_MA010120220809301127","brand":"GS25","name":"지에스25전주","lat":35.8075756485835,"lng":127.125079885609,"address":"전북특별자치도 전주시 완산구 효자동1가 902"},{"id":"EMART24_MA010120220809645411","brand":"EMART24","name":"이마트24군산오식도문화","lat":35.9637330761326,"lng":126.570002700427,"address":"전북특별자치도 군산시 오식도동 669-1"},{"id":"GS25_MA010120220809641835","brand":"GS25","name":"지에스전북태인점","lat":35.6514094944464,"lng":126.94335173508,"address":"전북특별자치도 정읍시 태인면 태창리 101-7"},{"id":"EMART24_MA010120220809646035","brand":"EMART24","name":"이마트24전주","lat":35.8755015305262,"lng":127.126847602537,"address":"전북특별자치도 전주시 덕진구 송천동2가 1325-1"},{"id":"CU_MA010120220809373318","brand":"CU","name":"씨유","lat":35.9587535302617,"lng":126.999689615243,"address":"전북특별자치도 익산시 부송동 231-66"},{"id":"7-ELEVEN_MA010120220809542961","brand":"7-ELEVEN","name":"세븐전주건지점","lat":35.8410400797602,"lng":127.13285839437,"address":"전북특별자치도 전주시 덕진구 금암동 667-32"},{"id":"GS25_MA010120220809739768","brand":"GS25","name":"지에스25군산공단로점","lat":35.9719610385815,"lng":126.650371626618,"address":"전북특별자치도 군산시 산북동 1113"},{"id":"7-ELEVEN_MA010120220809725738","brand":"7-ELEVEN","name":"세븐일레븐군산국가","lat":35.9471014051178,"lng":126.568906903762,"address":"전북특별자치도 군산시 오식도동 817-5"},{"id":"CU_MA010120220809372040","brand":"CU","name":"씨유부안","lat":35.7240505584641,"lng":126.737700871992,"address":"전북특별자치도 부안군 부안읍 봉덕리 797-2"},{"id":"7-ELEVEN_MA010120220809653302","brand":"7-ELEVEN","name":"세븐일레븐","lat":35.9371048437553,"lng":127.01439570815,"address":"전북특별자치도 익산시 석암동 608-10"},{"id":"GS25_MA010120220809705715","brand":"GS25","name":"GS25하가빅","lat":35.8408815778002,"lng":127.111462257967,"address":"전북특별자치도 전주시 덕진구 덕진동2가 696"},{"id":"CU_MA010120220809577550","brand":"CU","name":"씨유전주서곡점","lat":35.8362769185141,"lng":127.100365579544,"address":"전북특별자치도 전주시 완산구 효자동3가 1426-6"},{"id":"7-ELEVEN_MA010120220809728086","brand":"7-ELEVEN","name":"세븐군산새만금점","lat":35.9637262362634,"lng":126.563118477108,"address":"전북특별자치도 군산시 오식도동 623-9"},{"id":"GS25_MA010120220809335820","brand":"GS25","name":"GS25김제만경점","lat":35.8521937634547,"lng":126.816310300194,"address":"전북특별자치도 김제시 만경읍 만경리 478-44"},{"id":"7-ELEVEN_MA010120220809739666","brand":"7-ELEVEN","name":"세븐일레븐군산조촌","lat":35.9715549420644,"lng":126.734556317507,"address":"전북특별자치도 군산시 경장동 544-15"},{"id":"7-ELEVEN_MA010120220809400784","brand":"7-ELEVEN","name":"세븐일레븐전주우아동신점","lat":35.8501831812413,"lng":127.158954629946,"address":"전북특별자치도 전주시 덕진구 우아동3가 744-145"},{"id":"7-ELEVEN_MA010120220809642749","brand":"7-ELEVEN","name":"세븐일레븐장수번암점","lat":35.5310103486591,"lng":127.543635544249,"address":"전북특별자치도 장수군 번암면 노단리 1151-1"},{"id":"7-ELEVEN_MA010120220809701763","brand":"7-ELEVEN","name":"세븐일레븐무주무풍점","lat":35.9696290952886,"lng":127.851547765491,"address":"전북특별자치도 무주군 무풍면 현내리 269-5"},{"id":"CU_MA010120220809827871","brand":"CU","name":"상록씨유뉴변산농협연","lat":35.6047724621024,"lng":126.476933654698,"address":"전북특별자치도 부안군 변산면 도청리 1119"},{"id":"7-ELEVEN_MA010120220809771399","brand":"7-ELEVEN","name":"세븐일레븐남원","lat":35.4156636204966,"lng":127.386383137995,"address":"전북특별자치도 남원시 향교동 244-1"},{"id":"GS25_MA010120220810032516","brand":"GS25","name":"지에스25에코","lat":35.8798823922189,"lng":127.134418238895,"address":"전북특별자치도 전주시 덕진구 송천동2가 1300"},{"id":"CU_MA010120220810032095","brand":"CU","name":"씨유전주평화","lat":35.7951927066213,"lng":127.133091776316,"address":"전북특별자치도 전주시 완산구 평화동1가 709-7"},{"id":"GS25_MA010120220809781359","brand":"GS25","name":"지에스25익산송학점","lat":35.9426876982676,"lng":126.940540106328,"address":"전북특별자치도 익산시 모현동1가 253-9"},{"id":"CU_MA010120220809833237","brand":"CU","name":"씨유익산","lat":35.9530360584668,"lng":126.970570995178,"address":"전북특별자치도 익산시 영등동 759-11"},{"id":"GS25_MA010120220810033090","brand":"GS25","name":"지에스25무주구천점","lat":35.9085948438297,"lng":127.77777968621,"address":"전북특별자치도 무주군 설천면 삼공리 323-11"},{"id":"7-ELEVEN_MA010120220809759863","brand":"7-ELEVEN","name":"세븐일레븐전주","lat":35.8724120872592,"lng":127.125082051587,"address":"전북특별자치도 전주시 덕진구 송천동2가 1330-1"},{"id":"GS25_MA010120220809852938","brand":"GS25","name":"지에스25아중","lat":35.8321005527099,"lng":127.168093526006,"address":"전북특별자치도 전주시 덕진구 우아동2가 887"},{"id":"7-ELEVEN_MA010120220810057367","brand":"7-ELEVEN","name":"세븐익산영등장비점","lat":35.9593102021926,"lng":126.977563458838,"address":"전북특별자치도 익산시 영등동 841-8"},{"id":"7-ELEVEN_MA010120220809856739","brand":"7-ELEVEN","name":"세븐일레븐군산뉴오식도점","lat":35.9622540920454,"lng":126.56973357944,"address":"전북특별자치도 군산시 오식도동 688-8"},{"id":"7-ELEVEN_MA010120220809887113","brand":"7-ELEVEN","name":"세븐일레븐전주효자","lat":35.8050003768946,"lng":127.113646985114,"address":"전북특별자치도 전주시 완산구 효자동1가 650-3"},{"id":"7-ELEVEN_MA010120220809932960","brand":"7-ELEVEN","name":"세븐일레븐남원교룡로점","lat":35.4154769729867,"lng":127.382726866369,"address":"전북특별자치도 남원시 향교동 257-6"},{"id":"CU_MA010120220809783084","brand":"CU","name":"씨유익산뉴장신점","lat":35.9452877495894,"lng":126.931992944465,"address":"전북특별자치도 익산시 송학동 285-2"},{"id":"GS25_MA010120220810035183","brand":"GS25","name":"지에스25전주로맨스점","lat":35.8313570076133,"lng":127.171290438898,"address":"전북특별자치도 전주시 덕진구 우아동2가 891-3"},{"id":"CU_MA010120220809831302","brand":"CU","name":"씨유익산금마점","lat":36.0016175047312,"lng":127.043421913281,"address":"전북특별자치도 익산시 금마면 용순리 25-12"},{"id":"GS25_MA010120220809883557","brand":"GS25","name":"지에스25덕진","lat":35.8431859868698,"lng":127.139990445628,"address":"전북특별자치도 전주시 덕진구 금암동 1589-3"},{"id":"CU_MA010120220809757284","brand":"CU","name":"씨유블루씨격포항구점","lat":35.621859496143,"lng":126.472517451666,"address":"전북특별자치도 부안군 변산면 격포리 468-1"},{"id":"7-ELEVEN_MA010120220810283434","brand":"7-ELEVEN","name":"세븐일레븐익산남부점","lat":35.929850988145,"lng":126.954245999011,"address":"전북특별자치도 익산시 인화동2가 94-5"},{"id":"CU_MA010120220810322058","brand":"CU","name":"씨유군산월명","lat":35.9860502644421,"lng":126.708859042049,"address":"전북특별자치도 군산시 월명동 7-4"},{"id":"CU_MA010120220810150901","brand":"CU","name":"씨유송천한양점","lat":35.8611953904802,"lng":127.111988911057,"address":"전북특별자치도 전주시 덕진구 송천동1가 605-1"},{"id":"7-ELEVEN_MA010120220810276933","brand":"7-ELEVEN","name":"세븐김제검산택지점","lat":35.8022844426222,"lng":126.903383431277,"address":"전북특별자치도 김제시 검산동 1066-1"},{"id":"7-ELEVEN_MA010120220810139802","brand":"7-ELEVEN","name":"세븐일레븐전북","lat":35.6122758817204,"lng":127.281325972657,"address":"전북특별자치도 임실군 임실읍 이도리 549-5"},{"id":"CU_MA010120220810179549","brand":"CU","name":"씨유객리단길점","lat":35.8199248031614,"lng":127.139739344281,"address":"전북특별자치도 전주시 완산구 다가동4가 57-1"},{"id":"GS25_MA010120220810310666","brand":"GS25","name":"지에스25산북","lat":35.9608945706351,"lng":126.67631592679,"address":"전북특별자치도 군산시 산북동 3602-9"},{"id":"GS25_MA010120220810234917","brand":"GS25","name":"지에스25나운","lat":35.9704894650911,"lng":126.69931504905,"address":"전북특별자치도 군산시 나운동 810-1"},{"id":"CU_MA010120220810435578","brand":"CU","name":"씨유익산낭산점","lat":36.0750532984744,"lng":127.031439356989,"address":"전북특별자치도 익산시 낭산면 석천리 1088-57"},{"id":"CU_MA010120220810242465","brand":"CU","name":"씨유삼례주공점","lat":35.9200379798844,"lng":127.077779943565,"address":"전북특별자치도 완주군 삼례읍 삼례리 1754"},{"id":"7-ELEVEN_MA010120220810348411","brand":"7-ELEVEN","name":"세븐일레븐익산영등소라점","lat":35.9502958092345,"lng":126.968687733526,"address":"전북특별자치도 익산시 영등동 266-3"},{"id":"GS25_MA010120220810312468","brand":"GS25","name":"지에스25평화푸른점","lat":35.7875890687941,"lng":127.138388543258,"address":"전북특별자치도 전주시 완산구 평화동2가 941"},{"id":"CU_MA010120220810259982","brand":"CU","name":"씨유김제금구점","lat":35.814920480442,"lng":126.975811598771,"address":"전북특별자치도 김제시 금구면 청운리 511-3"},{"id":"7-ELEVEN_MA010120220810372367","brand":"7-ELEVEN","name":"세븐일레븐전주평화삼우점","lat":35.8000470425456,"lng":127.143930617382,"address":"전북특별자치도 전주시 완산구 평화동1가 417-1"},{"id":"CU_MA010120220810366169","brand":"CU","name":"씨유익산IC점","lat":35.9727724890241,"lng":127.032197023679,"address":"전북특별자치도 익산시 덕기동 681-12"},{"id":"GS25_MA010120220810109176","brand":"GS25","name":"지에스25전주","lat":35.8474720721545,"lng":127.157687279639,"address":"전북특별자치도 전주시 덕진구 우아동3가 752-12"},{"id":"7-ELEVEN_MA010120220810260414","brand":"7-ELEVEN","name":"세븐일레븐군산의료원점","lat":35.9557754755288,"lng":126.711630511462,"address":"전북특별자치도 군산시 지곡동 555-5"},{"id":"EMART24_MA010120220810113447","brand":"EMART24","name":"이마트24R김제백구점","lat":35.8921112360995,"lng":126.968090410763,"address":"전북특별자치도 김제시 백구면 반월리 210-25"},{"id":"GS25_MA010120220810314239","brand":"GS25","name":"지에스25어양주공점","lat":35.9606538767284,"lng":126.982540439219,"address":"전북특별자치도 익산시 어양동 635-1"},{"id":"CU_MA010120220810255470","brand":"CU","name":"씨유군산오식도대로점","lat":35.9454905216314,"lng":126.557167444704,"address":"전북특별자치도 군산시 오식도동 973"},{"id":"7-ELEVEN_MA010120220810207130","brand":"7-ELEVEN","name":"세븐전주화산점","lat":35.8139182865355,"lng":127.118395509908,"address":"전북특별자치도 전주시 완산구 중화산동2가 637"},{"id":"CU_MA010120220810409111","brand":"CU","name":"씨유익산평화점","lat":35.9344861265355,"lng":126.940014323414,"address":"전북특별자치도 익산시 평화동 342-19"},{"id":"GS25_MA010120220810144681","brand":"GS25","name":"지에스이십오남원해피","lat":35.4243474551743,"lng":127.409724690759,"address":"전북특별자치도 남원시 월락동 13-1"},{"id":"GS25_MA010120220810506193","brand":"GS25","name":"GS25군산대점","lat":35.9452318258092,"lng":126.686786966464,"address":"전북특별자치도 군산시 미룡동 879-2"},{"id":"7-ELEVEN_MA010120220810877497","brand":"7-ELEVEN","name":"세븐일레븐남원광치","lat":35.4349405644927,"lng":127.378523943918,"address":"전북특별자치도 남원시 용정동 492-6"},{"id":"GS25_MA010120220810577068","brand":"GS25","name":"지에스25완주단비점","lat":35.9622864270683,"lng":127.123017579678,"address":"전북특별자치도 완주군 봉동읍 둔산리 873-3"},{"id":"CU_MA010120220810585464","brand":"CU","name":"씨유전주효자","lat":35.8092185972233,"lng":127.122504469814,"address":"전북특별자치도 전주시 완산구 효자동1가 636-2"},{"id":"CU_MA010120220810801364","brand":"CU","name":"씨유국민연금관리공단점","lat":35.8373157943264,"lng":127.071810809558,"address":"전북특별자치도 전주시 덕진구 만성동 1165"},{"id":"7-ELEVEN_MA010120220810803590","brand":"7-ELEVEN","name":"세븐일레븐군산디오션시티점","lat":35.9767502894425,"lng":126.744817174358,"address":"전북특별자치도 군산시 조촌동 41-26"},{"id":"CU_MA010120220811017786","brand":"CU","name":"씨유전주안행로점","lat":35.8040675250196,"lng":127.135441004888,"address":"전북특별자치도 전주시 완산구 효자동1가 680-5"},{"id":"CU_MA010120220811076581","brand":"CU","name":"CU정읍","lat":35.5580057946266,"lng":126.854231247163,"address":"전북특별자치도 정읍시 시기동 1021"},{"id":"GS25_MA010120220811076454","brand":"GS25","name":"지에스25뉴미룡대로점","lat":35.955323829435,"lng":126.675906355038,"address":"전북특별자치도 군산시 미룡동 865-4"},{"id":"GS25_MA010120220810479084","brand":"GS25","name":"지에스25군산우리점","lat":35.9669702002573,"lng":126.67680109875,"address":"전북특별자치도 군산시 산북동 3556-18"},{"id":"CU_MA010120220811079130","brand":"CU","name":"씨유김제요촌","lat":35.8052014206819,"lng":126.889317823565,"address":"전북특별자치도 김제시 요촌동 583-7"},{"id":"GS25_MA010120220811085361","brand":"GS25","name":"GS25덕진","lat":35.840591446504,"lng":127.122497345157,"address":"전북특별자치도 전주시 덕진구 덕진동1가 1409-37"},{"id":"CU_MA010120220811368539","brand":"CU","name":"씨유군산오식도","lat":35.9652626106733,"lng":126.5642962137,"address":"전북특별자치도 군산시 오식도동 603-14"},{"id":"7-ELEVEN_MA010120220811228352","brand":"7-ELEVEN","name":"세븐일레븐익산미륵사지점","lat":36.0086878223738,"lng":127.027741482244,"address":"전북특별자치도 익산시 금마면 용순리 741-15"},{"id":"EMART24_MA010120220811129930","brand":"EMART24","name":"이마트24익산부송타운점","lat":35.9606996812806,"lng":126.988748276523,"address":"전북특별자치도 익산시 부송동 1098-3"},{"id":"CU_MA010120220811521177","brand":"CU","name":"씨유전주","lat":35.8342902235084,"lng":127.132349088696,"address":"전북특별자치도 전주시 덕진구 금암동 705-14"},{"id":"CU_MA010120220811367683","brand":"CU","name":"씨유무주리조트설천점","lat":35.8897984052552,"lng":127.731389878206,"address":"전북특별자치도 무주군 설천면 심곡리 산 43-15"},{"id":"7-ELEVEN_MA010120220811661885","brand":"7-ELEVEN","name":"세븐일레븐전주공단점","lat":35.8563325888543,"lng":127.107642283711,"address":"전북특별자치도 전주시 덕진구 팔복동1가 165-14"},{"id":"CU_MA010120220811521408","brand":"CU","name":"씨유완주","lat":35.9587069129044,"lng":127.124563950341,"address":"전북특별자치도 완주군 봉동읍 둔산리 905-7"},{"id":"CU_MA010120220811656330","brand":"CU","name":"씨유안골","lat":35.8357287155497,"lng":127.157675106907,"address":"전북특별자치도 전주시 덕진구 인후동1가 462-2"},{"id":"CU_MA010120220811902163","brand":"CU","name":"씨유군산회현점","lat":35.9130560318565,"lng":126.756056321704,"address":"전북특별자치도 군산시 회현면 대정리 59-1"},{"id":"7-ELEVEN_MA010120220811812441","brand":"7-ELEVEN","name":"세븐일레븐전주도청","lat":35.8164254906574,"lng":127.106968731263,"address":"전북특별자치도 전주시 완산구 효자동3가 1533-12"},{"id":"GS25_MA010120220811903346","brand":"GS25","name":"지에스25뉴익산우남점","lat":35.955669245663,"lng":126.977852691739,"address":"전북특별자치도 익산시 영등동 772"},{"id":"CU_MA010120220811967667","brand":"CU","name":"씨유전주서신","lat":35.8299994773219,"lng":127.11560831623,"address":"전북특별자치도 전주시 완산구 서신동 815"},{"id":"GS25_MA010120220812002395","brand":"GS25","name":"GS25삼천","lat":35.7966898281916,"lng":127.114597595944,"address":"전북특별자치도 전주시 완산구 삼천동1가 287-17"},{"id":"7-ELEVEN_MA010120220811949590","brand":"7-ELEVEN","name":"세븐일레븐부안채석강점","lat":35.6273822812399,"lng":126.46999738154,"address":"전북특별자치도 부안군 변산면 격포리 298-13"},{"id":"EMART24_MA010120220811753010","brand":"EMART24","name":"이마트24남원요천로점","lat":35.4360977472615,"lng":127.418429397552,"address":"전북특별자치도 남원시 식정동 475-3"},{"id":"GS25_MA010120220811808132","brand":"GS25","name":"GS25변산해수욕장","lat":35.6757634267703,"lng":126.528706248959,"address":"전북특별자치도 부안군 변산면 대항리 523-15"},{"id":"GS25_MA010120220811689523","brand":"GS25","name":"지에스25인후","lat":35.8302628542985,"lng":127.160873798446,"address":"전북특별자치도 전주시 덕진구 인후동1가 866-1"},{"id":"CU_MA010120220811924823","brand":"CU","name":"씨유무주반딧불점","lat":36.0061834535886,"lng":127.656319833959,"address":"전북특별자치도 무주군 무주읍 읍내리 1099"},{"id":"GS25_MA010120220811908735","brand":"GS25","name":"지에스군산","lat":35.9427097578686,"lng":126.748705922958,"address":"전북특별자치도 군산시 옥산면 옥산리 75-3"},{"id":"CU_MA010120220811688571","brand":"CU","name":"씨유익산감초점","lat":35.9312318343119,"lng":126.959663971708,"address":"전북특별자치도 익산시 동산동 696-9"},{"id":"CU_MA010120220811898431","brand":"CU","name":"씨유중화산타운점","lat":35.8210896205289,"lng":127.121106259519,"address":"전북특별자치도 전주시 완산구 중화산동2가 574-13"},{"id":"GS25_MA010120220811671784","brand":"GS25","name":"지에스25군산","lat":35.9624001104842,"lng":126.719466145171,"address":"전북특별자치도 군산시 수송동 874"},{"id":"GS25_MA010120220811995231","brand":"GS25","name":"GS25전주서호점","lat":35.8565472552313,"lng":127.118934909371,"address":"전북특별자치도 전주시 덕진구 송천동1가 406-1"},{"id":"EMART24_MA010120220811908519","brand":"EMART24","name":"이마트24익산주공","lat":35.9621140394566,"lng":126.983637596116,"address":"전북특별자치도 익산시 어양동 691"},{"id":"CU_MA010120220811789915","brand":"CU","name":"씨유익산영등","lat":35.9593465664408,"lng":126.979314918453,"address":"전북특별자치도 익산시 영등동 849-7"},{"id":"7-ELEVEN_MA010120220811781793","brand":"7-ELEVEN","name":"세븐일레븐무주안성","lat":35.8674804361831,"lng":127.653845501631,"address":"전북특별자치도 무주군 안성면 장기리 1506-11"},{"id":"7-ELEVEN_MA010120220811783250","brand":"7-ELEVEN","name":"세븐일레븐전주건지","lat":35.8450376106637,"lng":127.144188969211,"address":"전북특별자치도 전주시 덕진구 인후동2가 1531-22"},{"id":"CU_MA010120220811923392","brand":"CU","name":"씨유고창여중점","lat":35.4405038292098,"lng":126.695538545303,"address":"전북특별자치도 고창군 고창읍 석교리 8-14"},{"id":"GS25_MA010120220811892211","brand":"GS25","name":"지에스25만성","lat":35.8481889130339,"lng":127.079824046686,"address":"전북특별자치도 전주시 덕진구 만성동 1367-1"},{"id":"CU_MA010120220811828429","brand":"CU","name":"씨유진안마이산점","lat":35.7571840625056,"lng":127.393511678638,"address":"전북특별자치도 진안군 마령면 동촌리 70-4"},{"id":"7-ELEVEN_MA010120220811890456","brand":"7-ELEVEN","name":"세븐일레븐군산팔마로점","lat":35.9735529405496,"lng":126.717564039542,"address":"전북특별자치도 군산시 동흥남동 399-14"},{"id":"CU_MA010120220812231574","brand":"CU","name":"씨유뉴군산","lat":35.9774430270325,"lng":126.723914544292,"address":"전북특별자치도 군산시 대명동 387-12"},{"id":"GS25_MA010120220812099423","brand":"GS25","name":"GS25전라감영점","lat":35.8156647720392,"lng":127.144877213476,"address":"전북특별자치도 전주시 완산구 중앙동4가 16-3"},{"id":"CU_MA010120220812328871","brand":"CU","name":"씨유아중지구점","lat":35.8374707113507,"lng":127.169045655492,"address":"전북특별자치도 전주시 덕진구 산정동 865-3"},{"id":"CU_MA010120220812217345","brand":"CU","name":"씨유군산","lat":35.9642690958103,"lng":126.7021877078,"address":"전북특별자치도 군산시 나운동 100-7"},{"id":"CU_MA010120220812142155","brand":"CU","name":"씨유전주파크리움점","lat":35.8449903937297,"lng":127.121696049481,"address":"전북특별자치도 전주시 덕진구 덕진동1가 1400-2"},{"id":"GS25_MA010120220812252486","brand":"GS25","name":"지에스25뉴우석대","lat":35.914905873174,"lng":127.069642899325,"address":"전북특별자치도 완주군 삼례읍 후정리 2"},{"id":"EMART24_MA010120220812353715","brand":"EMART24","name":"이마트24R전주","lat":35.8225608669015,"lng":127.13591506172,"address":"전북특별자치도 전주시 완산구 태평동 169"},{"id":"CU_MA010120220812319793","brand":"CU","name":"씨유고창","lat":35.4350882400463,"lng":126.710734688725,"address":"전북특별자치도 고창군 고창읍 교촌리 501"},{"id":"CU_MA010120220812123109","brand":"CU","name":"씨유전주평화동신점","lat":35.7909967181627,"lng":127.120861472508,"address":"전북특별자치도 전주시 완산구 평화동2가 567"},{"id":"CU_MA010120220812319248","brand":"CU","name":"씨유전주만성주공점","lat":35.8386206567475,"lng":127.07502183017,"address":"전북특별자치도 전주시 덕진구 만성동 1290-2"},{"id":"GS25_MA010120220812263973","brand":"GS25","name":"지에스25삼례대명점","lat":35.9043787162857,"lng":127.070652812166,"address":"전북특별자치도 완주군 삼례읍 후정리 106"},{"id":"GS25_MA010120220812159748","brand":"GS25","name":"지에스25뉴전주","lat":35.848718600563,"lng":127.155542201784,"address":"전북특별자치도 전주시 덕진구 우아동3가 747-48"},{"id":"EMART24_MA010120220812177361","brand":"EMART24","name":"이마트24R전주평화","lat":35.7927810026508,"lng":127.13782231748,"address":"전북특별자치도 전주시 완산구 평화동1가 743-9"},{"id":"CU_MA010120220812221074","brand":"CU","name":"씨유전주대평생교육원점","lat":35.8098288078276,"lng":127.095618842789,"address":"전북특별자치도 전주시 완산구 효자동2가 1309-7"},{"id":"GS25_MA010120220812060863","brand":"GS25","name":"GS25도통주공점","lat":35.417641122435,"lng":127.396390089302,"address":"전북특별자치도 남원시 도통동 107-10"},{"id":"GS25_MA010120220812170551","brand":"GS25","name":"지에스25송천","lat":35.8614533388452,"lng":127.124610896415,"address":"전북특별자치도 전주시 덕진구 송천동1가 108"},{"id":"CU_MA010120220812101865","brand":"CU","name":"씨유송천","lat":35.8625147448316,"lng":127.12659440018,"address":"전북특별자치도 전주시 덕진구 송천동1가 101-14"},{"id":"CU_MA010120220812260497","brand":"CU","name":"씨유익산청솔점","lat":35.9586766566642,"lng":126.966145924517,"address":"전북특별자치도 익산시 신동 774-24"},{"id":"CU_MA010120220812113194","brand":"CU","name":"씨유익산","lat":35.9334385441591,"lng":126.955861850374,"address":"전북특별자치도 익산시 주현동 124-4"},{"id":"CU_MA010120220812167231","brand":"CU","name":"씨유나운대로점","lat":35.9636563025778,"lng":126.691503291298,"address":"전북특별자치도 군산시 나운동 806-8"},{"id":"CU_MA010120220812220271","brand":"CU","name":"씨유정읍IC점","lat":35.5806537186274,"lng":126.838755313396,"address":"전북특별자치도 정읍시 농소동 191-31"},{"id":"CU_MA010120220812236566","brand":"CU","name":"씨유전주화산","lat":35.8189542930617,"lng":127.12045014036,"address":"전북특별자치도 전주시 완산구 중화산동2가 594"},{"id":"CU_MA010120220812207554","brand":"CU","name":"씨유전북사대부고점","lat":35.8437731762771,"lng":127.13880707966,"address":"전북특별자치도 전주시 덕진구 금암동 1590-1"},{"id":"7-ELEVEN_MA010120220812223105","brand":"7-ELEVEN","name":"세븐일레븐전주노송","lat":35.8229286032957,"lng":127.159376121858,"address":"전북특별자치도 전주시 완산구 중노송동 213-5"},{"id":"CU_MA010120220812149314","brand":"CU","name":"씨유타운점","lat":35.9594598036999,"lng":126.707194114336,"address":"전북특별자치도 군산시 지곡동 509-10"},{"id":"CU_MA010120220812094279","brand":"CU","name":"씨유군산","lat":35.9668200678859,"lng":126.717288691013,"address":"전북특별자치도 군산시 수송동 834-1"},{"id":"GS25_MA010120220812250910","brand":"GS25","name":"지에스25전주리조트점","lat":35.8302642388825,"lng":127.172859640859,"address":"전북특별자치도 전주시 덕진구 우아동2가 922-6"},{"id":"7-ELEVEN_MA010120220812557213","brand":"7-ELEVEN","name":"세븐일레븐군산군장코아점","lat":35.9651843434982,"lng":126.562600490587,"address":"전북특별자치도 군산시 오식도동 599-14"},{"id":"7-ELEVEN_MA010120220812474017","brand":"7-ELEVEN","name":"세븐군산소룡칠성점","lat":35.9700132180667,"lng":126.678983860621,"address":"전북특별자치도 군산시 소룡동 1570"},{"id":"CU_MA010120220812600743","brand":"CU","name":"CU전북대","lat":35.8425891454361,"lng":127.133846116311,"address":"전북특별자치도 전주시 덕진구 금암동 627-2"},{"id":"GS25_MA010120220812423054","brand":"GS25","name":"지에스25모현","lat":35.9515105854198,"lng":126.940001456248,"address":"전북특별자치도 익산시 모현동1가 849"},{"id":"CU_MA010120220812607125","brand":"CU","name":"씨유효자솔하우스점","lat":35.8139285612963,"lng":127.096851972836,"address":"전북특별자치도 전주시 완산구 효자동3가 1716-19"},{"id":"7-ELEVEN_MA010120220812680233","brand":"7-ELEVEN","name":"세븐일레븐완주과학로점","lat":35.9565433651427,"lng":127.125114795926,"address":"전북특별자치도 완주군 봉동읍 둔산리 937-2"},{"id":"CU_MA010120220812617589","brand":"CU","name":"씨유고창주공점","lat":35.4385391359445,"lng":126.710259784332,"address":"전북특별자치도 고창군 고창읍 월곡리 585-1"},{"id":"CU_MA010120220812628023","brand":"CU","name":"CU전주서일점","lat":35.8361154435116,"lng":127.119269653865,"address":"전북특별자치도 전주시 완산구 서신동 961"},{"id":"GS25_MA010120220812680715","brand":"GS25","name":"GS25익산어울림","lat":35.957025783211,"lng":126.960870203379,"address":"전북특별자치도 익산시 남중동 534"},{"id":"CU_MA010120220812667205","brand":"CU","name":"씨유익산","lat":35.9535889052765,"lng":126.988849045016,"address":"전북특별자치도 익산시 어양동 72-2"},{"id":"CU_MA010120220812592058","brand":"CU","name":"CU효자서부리턴점","lat":35.8221276179775,"lng":127.099805524255,"address":"전북특별자치도 전주시 완산구 효자동3가 1663-2"},{"id":"7-ELEVEN_MA010120220812383230","brand":"7-ELEVEN","name":"세븐일레븐정읍아산","lat":35.5884389801445,"lng":126.824472900165,"address":"전북특별자치도 정읍시 용계동 350"},{"id":"CU_MA010120220812710836","brand":"CU","name":"씨유김제지평선","lat":35.8535285693888,"lng":126.881589912426,"address":"전북특별자치도 김제시 백산면 부거리 1585"},